BUYER_DEA_NO,BUYER_BUS_ACT,BUYER_COUNTY,BUYER_STATE,avg,linear_average,lat,lon,BUYER_NAME,BUYER_ADDRESS1,BUYER_CITY,BUYER_ZIP,BUYER_ADDL_CO_INFO,BUYER_ADDRESS2
AA1120473,CHAIN PHARMACY,EAST BATON ROUGE,LA,0.4,0.022584126580064045,30.3969,-91.1099,ALBERTSONS LLC,7515 PERKINS ROAD,BATON ROUGE,70808,SAV-ON PHARMACY #1311,
AA2494033,CHAIN PHARMACY,EAST BATON ROUGE,LA,0.3,0.015793489484591607,30.5145,-91.0279,SAV-A-CENTER PHARMACY #10,14485 GREENWELL SPRINGS ROAD,GREENWELL SPRINGS,70739,,
AA2511295,RETAIL PHARMACY,IBERIA,LA,6.9,0.4298739221675183,30.0019,-91.8416,ACKAL'S IBERIA PHARMACY,1620 HOPKINS ST,NEW IBERIA,70560,,
AA2817041,RETAIL PHARMACY,LAFOURCHE,LA,7.6,0.47327732848113435,29.7019,-90.5645,ACADIA PARK DRUGS,108 ACADIA DR,RACELAND,70394,,
AA3209170,CHAIN PHARMACY,EAST BATON ROUGE,LA,0.3,0.018093033603592167,30.4322,-91.0833,ALBERTSONS LLC,9650 AIRLINE HIGHWAY,BATON ROUGE,70815,SAV-ON PHARMACY #712,
AA3399412,RETAIL PHARMACY,JEFFERSON,LA,0.3,0.01653559676981787,29.9665,-90.1435,ALTON OCHSNER MED FOUNDATION,OCHSNER PHARMACY,NEW ORLEANS,70121,,1514 JEFFERSON HWY
AA3422134,RETAIL PHARMACY,JEFFERSON DAVIS,LA,14.7,0.9176705944160757,30.2226,-92.6625,AUTIN JUNIUS,STEWARTS DRUG STORE,JENNINGS,70546,,403 W PLAQUEMINE
AA4383511,RETAIL PHARMACY,OUACHITA,LA,1.4,0.08855327517805407,32.5209,-92.1105,ARON'S PHARMACY,"ARON, CARL W",MONROE,71201,,1209 NO 18TH ST
AA4704183,RETAIL PHARMACY,LAFAYETTE,LA,0,0.002977856032463522,30.2191,-92.0258,ACADIANA PHARMACY OF LOURDES,224 ST LANDRY ST,LAFAYETTE,70506,,
AA7373171,CHAIN PHARMACY,EAST BATON ROUGE,LA,0.1,0.0055768436454013415,30.459,-91.0578,ALBERTSON'S,DBA SAV-ON PHARMACY #2710,BATON ROUGE,70815,,11321 FLORIDA BLVD
AA7373183,CHAIN PHARMACY,CADDO,LA,1,0.06565853924898149,32.4554,-93.7094,ALBERTSONS LLC,105 SOUTHFIELD ROAD,SHREVEPORT,71105,SAV-ON PHARMACY #0218,
AA7382536,CHAIN PHARMACY,LAFAYETTE,LA,0.4,0.02361802227069054,30.2089,-92.0387,ALBERTSONS LLC,2678 JOHNSTON ST,LAFAYETTE,70501,SAV-ON PHARMACY #120,
AA7884580,RETAIL PHARMACY,FRANKLIN,LA,37.7,2.359442935391792,32.1544,-91.7272,ADAMS BROS PHARMACY INC,1513 EIGHTH STREET,WINNSBORO,71295,,
AA8300030,RETAIL PHARMACY,WEST BATON ROUGE,LA,101.7,6.367130438820926,30.3878,-91.2368,DANIEL PHARMACY,710 EAST MAIN STREET,BRUSLY,70719,,P.O. BOX 218
AB1137505,RETAIL PHARMACY,IBERVILLE,LA,1.6,0.1022642174925441,30.1714,-91.1464,BAJON'S PHARMACY INC,"32420 BOWIE ST, PO BOX 8",WHITE CASTLE,70788,,
AB1265784,RETAIL PHARMACY,ACADIA,LA,6.1,0.38278363582632685,30.2132,-92.3726,BIER'S PHARMACY,410 NORTH PARKERSON AVE,CROWLEY,70526,,
AB1393393,RETAIL PHARMACY,SAINT TAMMANY,LA,4.3,0.2697768453591284,30.4698,-90.1138,"BRASWELL DRUGS, INC",1107 S TYLER STREET,COVINGTON,70433,,
AB1564562,RETAIL PHARMACY,JEFFERSON,LA,0.5,0.03345151013354117,33.6114,-117.9262,BBC INC,DBA C & G PHARMACY,RIVER RIDGE,70123,,9311 JEFFERSON HWY
AB2069082,RETAIL PHARMACY,SAINT LANDRY,LA,0,0.002367451990083958,30.7173,-91.8917,BENOIT'S THRIFTY WAY PHARM,9490 HWY 10,PALMETTO,71358,,P.O. BOX 216
AB2369951,RETAIL PHARMACY,IBERIA,LA,6.1,0.38400687668572,30.0113,-91.824700000000007,BROUSSARD'S PHARMACY,OF NEW IBERIA INC,NEW IBERIA,70560,,600 W ST PETER STREET
AB3365954,RETAIL PHARMACY,UNION,LA,42.4,2.657372078621859,32.8211,-92.6567,BERNICE PHARMACY INC,417 MAIN STREET,BERNICE,71222,,
AB3393446,RETAIL PHARMACY,LAFAYETTE,LA,0.5,0.03158178955582887,30.2033,-92.0183,BEGNAUD'S PHARMACY MEDICAL CTR,BEGNAUD ATISTA J ROLAND T BYR,LAFAYETTE,70503,,1164 COOLIDGE
AB3398030,RETAIL PHARMACY,IBERVILLE,LA,182.6,11.438930454113718,30.2902,-91.2352,BARKER'S PHARMACY,23460 EDEN STREET,PLAQUEMINE,70764,,
AB3400176,RETAIL PHARMACY,TENSAS,LA,410.6,25.722106272811974,32.0759,-91.2355,BRITT'S PHARMACY,102 NORTH MAIN STREET,NEWELLTON,71357,BRITT EDWIN E,PO BOX 398
AB3411686,RETAIL PHARMACY,MOREHOUSE,LA,11.6,0.723857931564761,32.7761,-91.7932,BRODIE PHARMACY INC,C/O MARGARET B PHILLEY,MER ROUGE,71261,,204 DAVENPORT
AB3418161,RETAIL PHARMACY,AVOYELLES,LA,6,0.3731062001894126,30.9538,-92.1838,BUNKIE PHARMACY INC,206 S.W. MAIN ST,BUNKIE,71322,,
AB3419872,RETAIL PHARMACY,ASCENSION,LA,8.6,0.5367923768624947,30.217,-90.9215,BERTRAND'S PHARMACY,2001 S. BURNSIDE AVE.,GONZALES,70737,,
AB6203549,RETAIL PHARMACY,EAST BATON ROUGE,LA,2.6,0.16169560955793838,30.5132,-91.1477,BORDELON'S SUPER-SAVE PHARM,6920 PLANK RD,BATON ROUGE,70811,,
AB6220850,RETAIL PHARMACY,EVANGELINE,LA,49.5,3.1001077149816108,30.6987,-92.2848,BLAKE'S FAMILY PHARMACY,512 MCARTHUR DRIVE,VILLE PLATTE,70586,,PO BOX 348
AB7540493,RETAIL PHARMACY,SAINT BERNARD,LA,270.5,16.942844971424122,29.8701,-89.8925,BRADLEY'S PHARMACY,RICHE-GEBBIA INC,ST BERNARD,70085,,8115 EAST ST. BERNARD HIGHWAY
AB8626268,RETAIL PHARMACY,SAINT MARTIN,LA,19.8,1.2432074010273853,30.3127,-91.7971,BOYER'S THRIFT PHARMACY INC,1423 HENDERSON HIGHWAY,HENDERSON,70517,,PO BOX 568
AB9582998,RETAIL PHARMACY,EVANGELINE,LA,17.5,1.098722895733977,30.6802,-92.2759,BLAKE'S SOUTHSIDE PHARMACY,808 SOUTH CHATAIGNIER ROAD,VILLE PLATTE,70586,,PO BOX 348
AC1312785,RETAIL PHARMACY,SAINT MARTIN,LA,13.5,0.843475298492577,30.2134,-91.8324,MILLS CASHWAY PHARMACY,1027 MARTIN STREET,PARKS,70582,,
AC1912218,RETAIL PHARMACY,TANGIPAHOA,LA,21.9,1.370396414534525,30.5013,-90.481,CHANNELL DRUGS,1812  W THOMAS STREET,HAMMOND,70401,,
AC2446474,RETAIL PHARMACY,CONCORDIA,LA,114.3,7.1581892604503015,31.6502,-91.5625,COLVIN'S PHARMACY,114 SERIO BLVD,FERRIDAY,71334,,PO BOX 669
AC3183162,RETAIL PHARMACY,ORLEANS,LA,0.9,0.05731789288432635,29.9196,-90.0156,CARR'S DRUGS INC,3500 HOLIDAY DRIVE,NEW ORLEANS,70114,,
AC3401293,RETAIL PHARMACY,CALCASIEU,LA,0,6.882888209256841e-4,30.2329,-93.2169,CLINIC PHARMACY,501 S. RYAN STREET,LAKE CHARLES,70601,,
AC3402219,RETAIL PHARMACY,ALLEN,LA,39.3,2.4637993073585536,30.4873,-92.8467,CAPPEL DRUGSTORE,904 4TH AVENUE,KINDER,70648,,P.O. BOX 430
AC3413680,RETAIL PHARMACY,TANGIPAHOA,LA,2.8,0.1780530834695613,30.5045,-90.4598,CENTRAL REXALL DRUGS INC,125 E THOMAS STREET,HAMMOND,70401,,
AC3417498,RETAIL PHARMACY,WINN,LA,17,1.0632954602530058,31.9264,-92.6399,COURT HOUSE PHARMACY,104 S JONES STREET,WINNFIELD,71483,,
AC3419783,RETAIL PHARMACY,SAINT HELENA,LA,1255.3,78.62923634647898,30.8307,-90.6697,CURRY PHARMACY INC,6216 HWY 10,GREENSBURG,70441,,PO BOX 1147
AC3420534,RETAIL PHARMACY,EAST CARROLL,LA,156.3,9.787936177326854,32.806,-91.1725,CHAPMAN'S DRUG,CHAPMAN L W,LAKE PROVIDENCE,71254,,407 LAKE ST
AC4748933,RETAIL PHARMACY,CALCASIEU,LA,1.7,0.10753945511246189,30.248,-93.2573,CARAWAY'S PHARMACY INC,820 MCKINLEY ST,WESTLAKE,70669,,
AC5237777,RETAIL PHARMACY,ACADIA,LA,13.1,0.817542878348297,30.2195,-92.3759,CARMICHAEL CASHWAY PHARMACY,CARMICHAEL THEODORE S,CROWLEY,70526,,1002 NORTH PARKERSON
AC5778521,RETAIL PHARMACY,JEFFERSON,LA,2,0.12379603042499425,30.0144,-90.1625,CHATEAU DRUGS,3544 W. ESPLANADE AVE.,METAIRIE,70002,CHATEAU DRUGS,
AC6391243,RETAIL PHARMACY,LAFOURCHE,LA,28.9,1.812299465191907,29.3919,-90.2678,CLINIC DRUG STORE OF GOLDEN MEADOW INC,110 SOUTH BAYOU DRIVE,GOLDEN MEADOW,70357,,
AC6473920,RETAIL PHARMACY,EAST FELICIANA,LA,32.6,2.0405041365868146,30.8659,-91.01,CLINTON DRUG STORE,1027 ST HELENA STREET,CLINTON,70722,,P.O. BOX 209
AC6800141,RETAIL PHARMACY,IBERIA,LA,3,0.18755316395648317,29.9191,-91.6707,CASHWAY PHARMACY,FREDERICK TERRY ALLEN,JEANERETTE,70544,,1801 W MAIN ST
AC7022825,RETAIL PHARMACY,LAFAYETTE,LA,1.5,0.09236122022340737,30.2338,-92.0955,CASHWAY PHARMACY,5900 CAMERON STREET,SCOTT,70583,,SUITE 100
AC7103384,RETAIL PHARMACY,OUACHITA,LA,0.3,0.02117213087366664,32.5008,-92.1141,CITY APOTHECARIES,312 GRAMMONT STE 102,MONROE,71201,CITY APOTHECARY INC,
AC7299971,RETAIL PHARMACY,SAINT TAMMANY,LA,1.5,0.09175094890432287,30.3941,-90.0097,C & C DRUGS,2803 HWY 59,MANDEVILLE,70471,,
AC7538448,RETAIL PHARMACY,CLAIBORNE,LA,316,19.794000536631494,32.7916,-93.0558,CLAIBORNE DRUG CO,511 W. MAIN,HOMER,71040,,
AC8027446,RETAIL PHARMACY,WASHINGTON,LA,9.5,0.5981736058023456,30.7907,-89.8602,C AND  F PHARMACY INC,424 AUSTIN STREET,BOGALUSA,70427,,
AC8762064,RETAIL PHARMACY,NATCHITOCHES,LA,94.8,5.94061338690011,31.7515,-93.0805,CAUSEY'S PHARMACY,407 BIENVILLE STREET,NATCHITOCHES,71457,,
AD1150464,RETAIL PHARMACY,ORLEANS,LA,0.8,0.04761663729620923,29.9802,-90.0835,DEBLANC PHARMACY,3111 GRAND ROUTE ST JOHN ST,NEW ORLEANS,70119,,
AD1629243,RETAIL PHARMACY,PLAQUEMINES,LA,33.1,2.0709620280808565,29.5013,-89.7175,DELTA DRUGS OF PORT,HWY 23 SOUTH,PORT SULPHUR,70083,SULPHUR INC.,26852
AD2692196,RETAIL PHARMACY,BOSSIER,LA,0.8,0.049964229219104525,32.5754,-93.7136,DENMON'S LOUISIANA PHARMACY,4160 AIRLINE DRIVE,BOSSIER CITY,71111,,
AD5521756,RETAIL PHARMACY,LAFOURCHE,LA,2.6,0.16510110432088934,29.7785,-90.8187,D M T INC #3,1772 CANAL BLVD,THIBODAUX,70302,,
AD5774559,RETAIL PHARMACY,VERMILION,LA,4.2,0.26116348267207656,29.9581,-92.0346,D & L FAMILY DRUG STORE,101 E LASTIE,ERATH,70533,,
AD6260359,RETAIL PHARMACY,TERREBONNE,LA,5.9,0.3665087224571395,29.5935,-90.6773,DAVE'S VILLAGE DRUGS,1620 PROSPECT AVENUE,HOUMA,70363,MATHERNE DAVID LOUIS,PO BOX 2216
AD7853636,RETAIL PHARMACY,RICHLAND,LA,14.8,0.9242158264188024,32.454,-91.4932,DELHI PHARMACY,414 BROADWAY STREET,DELHI,71232,DBA DELHI HEALTH MART,
AD8728492,RETAIL PHARMACY,SAINT TAMMANY,LA,0.6,0.03723012695735987,30.6265,-90.1864,FOLSOM PHARMACY,82150 HWY 25,FOLSOM,70437,,P.O. BOX 388
AE1635210,RETAIL PHARMACY,AVOYELLES,LA,4.2,0.26094084210945956,30.9853,-92.0524,EDDIE'S PHARMACY INC,BORDELON ROLAND E PD,COTTONPORT,71327,,206 CHOUPIQUE LANE
AE1735096,RETAIL PHARMACY,POINTE COUPEE,LA,18.4,1.1523270491581767,30.6836,-91.4627,THE MEDICINE SHOPPE,222 HOSPITAL ROAD,NEW ROADS,70760,,
AE7223833,RETAIL PHARMACY,EVANGELINE,LA,5.5,0.34174578722946886,30.6946,-92.2911,EASTIN PHARMACY,1535 W. MAIN ST. SUITE #2,VILLE PLATTE,70586,"EASTIN PHARMACY, INC",PO BOX 278
AF2009896,RETAIL PHARMACY,EVANGELINE,LA,11.3,0.7081635258925958,30.7821,-92.4261,FUSELIER'S PHARMACY INC,10600 VETERANS MEMORIAL HWY,PINE PRAIRIE,70576,,PO BOX 770
AF2371158,RETAIL PHARMACY,TANGIPAHOA,LA,4,0.2525594671347865,30.5045,-90.4624,MANNINO'S FAMILY PRACT PHARM,113 WEST CHARLES ST,HAMMOND,70401,,
AF3388382,RETAIL PHARMACY,WINN,LA,25,1.5637609323036947,31.9269,-92.6383,FLURRY'S CASH PHARMACY,101 E MAIN STREET,WINNFIELD,71483,FLURRY FRED R.,
AF3420522,RETAIL PHARMACY,SAINT MARY,LA,17.1,1.0714104097807127,29.804,-91.4983,FOURNET'S PHARMACY,1524 HOSPITAL AVE,FRANKLIN,70538,,
AF3421699,RETAIL PHARMACY,IBERIA,LA,10,0.6268647109286033,30.0042,-91.7974,FAMILY DRUGSTORE NEW IBERIA,DBA DELAUNE'S PHAR & HOME MED,NEW IBERIA,70563,,308 N LEWIS STREET
AF4491661,RETAIL PHARMACY,WEST FELICIANA,LA,183.2,11.47534951650366,30.7887,-91.3792,FELICIANA PHARMACY,7189 US HWY 61,ST FRANCISVILLE,70775,,BOX 578
AF5457292,RETAIL PHARMACY,UNION,LA,61.3,3.837161203974003,32.7734,-92.4025,FARMERVILLE DRUG COMPANY INC,300 EAST WATER,FARMERVILLE,71241,,
AG1497064,RETAIL PHARMACY,FRANKLIN,LA,16.7,1.0437730606376994,32.0497,-91.6581,GILBERT DRUGS,7584 GILBERT STREET,GILBERT,71336,,P.O. BOX 870
AG2591469,RETAIL PHARMACY,EAST BATON ROUGE,LA,0.1,0.005302144893589751,30.3955,-91.16,THE MEDICINE SHOPPE,5241 HIGHLAND ROAD,BATON ROUGE,70808,,
AG2686751,RETAIL PHARMACY,SAINT LANDRY,LA,0.5,0.032806977452049614,30.4136,-92.0385,GRAND COTEAU PRESCRIP SHOPPE,512 MARTIN LUTHER KING JR DR,GRAND COTEAU,70541,,
AG3399335,RETAIL PHARMACY,CALCASIEU,LA,1.9,0.12100859147987648,30.2046,-93.2328,GORDONS DRUG STORE INC # 1,2716 LAKE STREET,LAKE CHARLES,70601,,
AG3416167,RETAIL PHARMACY,TANGIPAHOA,LA,6.3,0.3922208561219196,30.7326,-90.5116,THRIFT TOWN PHARMACY,512 N 2ND STREET,AMITE,70422,,P.O. BOX 918
AG5583299,RETAIL PHARMACY,NATCHITOCHES,LA,12.3,0.7719322243869177,31.7517,-93.0612,GARDINER'S PHARMACY INC,1053 PARKWAY DRIVE,NATCHITOCHES,71457,,PO BOX 2264
AG5926944,RETAIL PHARMACY,WEST CARROLL,LA,61.7,3.866395329369036,32.861,-91.3893,GORDON SMITH'S PHARMACY,212 MAIN STREET,OAK GROVE,71263,SMITH GORDON N,PO BOX 238
AG6199423,RETAIL PHARMACY,LAFAYETTE,LA,0.7,0.04340876313516025,30.3172,-92.0472,GUILBEAU'S PHARMACY,208 EAST ST PETER ST,CARENCRO,70520,,PAUL J GUILBEAU
AG7204174,RETAIL PHARMACY,BEAUREGARD,LA,220.9,13.838461633218815,30.8418,-93.2894,THRIFTY WAY PHARMACY #2 INC,601 SOUTH PINE ST,DERIDDER,70634,,
AG7219202,RETAIL PHARMACY,ST JOHN THE BAPTIST,LA,57.8,3.621303206061626,30.0549,-90.552,GEM DRUGS INC,139 CENTRAL AVENUE,RESERVE,70084,,P.O. DRAWER K
AG7424322,RETAIL PHARMACY,ACADIA,LA,5.3,0.3326055671441548,30.2126,-92.3729,GREMILLION'S DRUG STORE,401 N PARKERSON,CROWLEY,70526,,
AG8743557,RETAIL PHARMACY,ST JOHN THE BAPTIST,LA,70,4.384455270073253,30.0749,-90.4958,MEDICINE SHOPPE,932 CARROLLWOOD AVENUE,LAPLACE,70068,,
AG9749384,RETAIL PHARMACY,SAINT JAMES,LA,155.7,9.750129602760635,30.0641,-90.6953,GEM DRUGS GRAMERCY INC,1635 HWY 3125,GRAMERCY,70052,,P.O. DRAWER 1511
AG9771329,RETAIL PHARMACY,EAST BATON ROUGE,LA,0.1,0.0037387403216386727,30.3925,-91.0956,INTER-LINK PHARMACEUTICALS,8585 PICARDY AVE,BATON ROUGE,70809,BLUEBONNET OUTPATIENT PHARMACY,
AH3403021,RETAIL PHARMACY,CADDO,LA,0.5,0.03314196468546983,32.4253,-93.717,HIGHLAND CLINIC PHARMACY,1455 E. BERT KOUNS IND LP,SHREVEPORT,71135,,P.O. BOX 51455
AH3403855,RETAIL PHARMACY,SAINT LANDRY,LA,1.4,0.0860466500229064,30.3972,-91.9314,HARDY'S DRUG STORE,P.O. BOX 316,ARNAUDVILLE,70512,,123 FUSELIER STREET
AH3416561,RETAIL PHARMACY,VERMILION,LA,1.3,0.08393622988171556,29.9741,-92.1358,HOLLIER DRUG STORE INC,105 S STATE ST,ABBEVILLE,70510,,
AH4746953,RETAIL PHARMACY,SAINT LANDRY,LA,2.7,0.16914142984988825,30.5354,-92.0987,THRIFTY-T-WAY PHARMACY,1406 WEST LANDRY,OPELOUSAS,70570,,
AH5002718,RETAIL PHARMACY,IBERIA,LA,3.1,0.19678912507748503,30.0186,-91.8314,HOWARD'S PHARMACY,1104 WEST SAINT PETER,NEW IBERIA,70560,,
AH6506779,RETAIL PHARMACY,SAINT MARTIN,LA,12.4,0.7758380100670333,,,HOSPITAL DRUG STORE,410 N MAIN ST,ST MARTINVILLE,70582,,
AH6858887,RETAIL PHARMACY,AVOYELLES,LA,5.5,0.3464244297608701,31.0433,-92.1333,HESSMER PHARMACY,3658 HWY 115,HESSMER,71341,,PO BOX 7
AH8294148,RETAIL PHARMACY,SABINE,LA,64.8,4.0608513112075775,31.6315,-93.6427,HENDERSON PHARMACY,1169 NORTH MAIN,ZWOLLE,71486,,PO BOX 608
AH9629809,RETAIL PHARMACY,TERREBONNE,LA,2.5,0.15441865419057513,29.6032,-90.7655,HAYDEL'S DRUG STORE,"4752 HIGHWAY 311, SUITE 100",HOUMA,70360,,
AI2964864,RETAIL PHARMACY,WASHINGTON,LA,15.6,0.9801976699816466,30.8331,-90.1524,IDEAL PHARMACY,808 RIVERSIDE DR,FRANKLINTON,70438,,
AI4369054,RETAIL PHARMACY,CATAHOULA,LA,80.7,5.05770543513849,31.8472,-91.659,ISLAND PHARMACY,P O BOX 38 HIGHWAY 15,SICILY ISLAND,71368,,
AJ1009768,RETAIL PHARMACY,JEFFERSON,LA,0.7,0.04109245905869369,30.0255,-90.2374,JOHN BULL PHARMACY,2124 38TH STREET,KENNER,70065,,
AJ2439342,RETAIL PHARMACY,RED RIVER,LA,585.5,36.672008635047284,32.0216,-93.3415,J & J DRUGS INC,DBA RED RIVER DRUGS,COUSHATTA,71019,,1603 RINGGOLD AVE PO BOX 685
AJ3393941,RETAIL PHARMACY,LA SALLE,LA,20.5,1.2861579806857912,31.6908,-92.1444,JENA PHARMACY INC,PO BOX 30,JENA,71342,,2951 EAST OAK STREET
AK1011852,CHAIN PHARMACY,SAINT TAMMANY,LA,0.7,0.04552250421295684,30.4723,-90.0866,K MART PHARMACY #7384,3555 HIGHWAY 190,MANDEVILLE,70471,,
AK1291018,CHAIN PHARMACY,CALCASIEU,LA,0.7,0.04491834295991241,30.1751,-93.2192,K & B LOUISIANA CORPORATION,115 WEST MCNEESE STREET,LAKE CHARLES,70605,RITE AID #7310,
AK1656226,CHAIN PHARMACY,TERREBONNE,LA,2.5,0.15609136917647184,29.5889,-90.7447,K & B LOUISIANA CORPORATION,1238 ST.CHARLES STREET,HOUMA,70360,RITE AID #7280,
AK1773488,CHAIN PHARMACY,RAPIDES,LA,2.7,0.16817731544303544,31.2846,-92.4746,KROGER PHARMACY #381,1422 MACARTHUR DRIVE,ALEXANDRIA,71303,,
AK1906075,CHAIN PHARMACY,TERREBONNE,LA,1.6,0.10161085689240015,29.6087,-90.7424,K MART PHARMACY #3320,133 MONARCH DRIVE,HOUMA,70364,,
AK2124775,CHAIN PHARMACY,EAST BATON ROUGE,LA,0.3,0.016858442682098997,30.3674,-91.0744,K & B LOUISIANA CORPORATION,9031 SIEGEN LANE,BATON ROUGE,70810,RITE AID #7319,
AK2361892,CHAIN PHARMACY,CADDO,LA,1.3,0.08163635210308878,32.4039,-93.8008,KROGER PHARMACY #427,9155 MANSFIELD ROAD,SHREVEPORT,71118,,
AK2417447,CHAIN PHARMACY,NATCHITOCHES,LA,25.8,1.6143583980048546,31.7528,-93.0765,K & B LOUISIANA CORPORATION,601 KEYSER AVENUE,NATCHITOCHES,71457,RITE AID #7344,
AK2434140,CHAIN PHARMACY,EAST BATON ROUGE,LA,0.3,0.020193117537854216,30.4518,-91.0233,K & B LOUISIANA CORPORATION,1029 MILLERVILLE RD,BATON ROUGE,70816,RITE AID #7325,
AK2478433,CHAIN PHARMACY,WEBSTER,LA,27,1.6900049351875637,32.6209,-93.2758,K & B LOUISIANA CORPORATION,214 HOMER ROAD,MINDEN,71055,RITE AID #7327,
AK2494413,CHAIN PHARMACY,BOSSIER,LA,2.5,0.1554503012865715,32.5292,-93.7081,K & B LA CORP/RITE AID #7333,2925 EAST TEXAS STREET,BOSSIER CITY,71111,,
AK2561834,CHAIN PHARMACY,CADDO,LA,0.4,0.024716329901231498,32.4429,-93.7831,K & B LOUISIANA CORPORATION,2758 WEST 70TH STREET,SHREVEPORT,71108,RITE AID #7331,
AK2628963,CHAIN PHARMACY,CADDO,LA,1,0.06183538592734833,32.5439,-93.7751,K & B LOUISIANA CORPORATION,1850 NORTH MARKET STREET,SHREVEPORT,71107,RITE AID #7330,
AK2663056,CHAIN PHARMACY,SAINT TAMMANY,LA,1.5,0.09581063723397369,30.2874,-89.7367,K & B LOUISIANA CORPORATION,"2090 GAUSE BOULEVARD, EAST",SLIDELL,70461,RITE AID #7292,
AK2938439,RETAIL PHARMACY,CLAIBORNE,LA,89.6,5.610032162812921,32.9613,-93.1323,KILLGORE'S PHARMACY,1909 MAIN STREET,HAYNESVILLE,71038,,
AK3365625,CHAIN PHARMACY,CALCASIEU,LA,0.8,0.050218714185178114,30.2124,-93.2128,KROGER CO,600 12TH ST,LAKE CHARLES,70601,,
AK3370361,CHAIN PHARMACY,JEFFERSON,LA,0.2,0.01250947787342299,30.0026,-90.1419,K & B LOUISIANA CORPORATION,725 VETERANS MEMORIAL BLVD,METAIRIE,70005,RITE AID #7237,
AK3416749,CHAIN PHARMACY,ORLEANS,LA,0.9,0.05571375196240837,29.9285,-90.092,K & B LOUISIANA CORPORATION,3401 ST. CHARLES AVENUE,NEW ORLEANS,70115,RITE AID #7255,
AK3416751,CHAIN PHARMACY,ORLEANS,LA,0.2,0.011830243577914451,29.9469,-90.1295,K & B LOUISIANA CORPORATION,1133 SOUTH CARROLLTON AVE.,NEW ORLEANS,70118,RITE AID #7258,
AK3416826,CHAIN PHARMACY,ORLEANS,LA,0.2,0.013790510181608179,29.9981,-90.0597,K & B LOUISIANA CORPORATION,3100 GENTILLY BOULEVARD,NEW ORLEANS,70122,RITE AID #7266,
AK3416840,CHAIN PHARMACY,JEFFERSON,LA,0.1,0.008938939495482091,29.9883,-90.1313,K & B LOUISIANA CORPORATION,800 METAIRIE ROAD SUITE D,METAIRIE,70005,RITE AID #7238,
AK3416864,CHAIN PHARMACY,JEFFERSON,LA,0.3,0.021383647230788626,29.9621,-90.1694,K & B LOUISIANA CORPORATION,4115 JEFFERSON HIGHWAY,JEFFERSON,70121,RITE AID #7264,
AK3416890,CHAIN PHARMACY,JEFFERSON,LA,0.4,0.027325037118852036,29.8939,-90.0958,K & B LOUISIANA CORPORATION,4535 WESTBANK EXPRESSWAY,MARRERO,70072,RITE AID #7251,
AK3416965,CHAIN PHARMACY,JEFFERSON,LA,0.2,0.01409725798621345,29.9373,-90.2103,K & B LOUISIANA CORPORATION,8225 JEFFERSON HIGHWAY,HARAHAN,70123,RITE AID #7268,
AK3416977,CHAIN PHARMACY,TERREBONNE,LA,5.3,0.32959305615351836,29.6344,-90.7566,K & B LOUISIANA CORPORATION,5953 W PARK AVE #1043,HOUMA,70364,RITE AID #7282,
AK3416989,CHAIN PHARMACY,EAST BATON ROUGE,LA,0.3,0.0171748893941141,30.4312,-91.1102,K & B LOUISIANA CORPORATION,7570 JEFFERSON HIGHWAY,BATON ROUGE,70806,RITE AID #7316,
AK3417006,CHAIN PHARMACY,EAST BATON ROUGE,LA,0.2,0.010835892655816573,30.5029,-91.1514,K & B LOUISIANA CORP,PLANK ROAD VILLAGE SHOPPING CE,BATON ROUGE,70805,RITE AID #7314,5840 PLANK ROAD
AK3417020,CHAIN PHARMACY,CALCASIEU,LA,0.9,0.05768728516685596,30.2362,-93.359,K & B LOUISIANA CORPORATION,1601 E. NAPOLEON STREET,SULPHUR,70663,RITE AID #7311,
AK3417044,CHAIN PHARMACY,RAPIDES,LA,4.1,0.2592794674073871,31.2993,-92.4777,K & B LOUISIANA CORPORATION,219 MCARTHUR DRIVE,ALEXANDRIA,71303,RITE AID #7342,
AK3417056,CHAIN PHARMACY,LAFAYETTE,LA,0.7,0.043835829866783214,30.1874,-92.0658,K & B LOUISIANA CORPORATION,4710 JOHNSTON STREET,LAFAYETTE,70503,RITE AID #7296,
AK4171500,CHAIN PHARMACY,EAST BATON ROUGE,LA,0.6,0.0356720949434216,30.4449,-91.1544,K & B LOUISIANA CORPORATION,3433 GOVERNMENT STREET,BATON ROUGE,70806,RITE AID #7315,
AK4435346,CHAIN PHARMACY,OUACHITA,LA,0.9,0.053239748060562704,32.5183,-92.1067,K & B LOUISIANA CORPORATION,1801 LOUISVILLE AVENUE,MONROE,71201,RITE AID #7337,
AK5358848,CHAIN PHARMACY,SAINT TAMMANY,LA,1.4,0.08820568348446829,30.2878,-89.7809,K & B LOUISIANA CORPORATION,114 GAUSE BOULEVARD WEST,SLIDELL,70460,RITE AID #7290,
AK5467192,CHAIN PHARMACY,JEFFERSON,LA,0.2,0.014589947871667173,29.9781,-90.2045,K & B LOUISIANA CORPORATION,6425 AIRLINE DRIVE,METAIRIE,70003,RITE AID #7234,
AK5577107,CHAIN PHARMACY,RAPIDES,LA,2,0.12832880942753375,31.2775,-92.4613,K & B LA CORP/RITE AID #7341,ALEXANDRIA MALL SHOP CTR,ALEXANDRIA,71301,,3437 MASONIC DRIVE
AK5577195,CHAIN PHARMACY,OUACHITA,LA,1.8,0.11109936777896467,32.5156,-92.1588,K & B LOUISIANA CORPORATION,102 THOMAS ROAD SUITE 200,WEST MONROE,71291,RITE AID #7340,
AK5577208,CHAIN PHARMACY,LINCOLN,LA,17,1.062017785516253,32.5233,-92.6391,K & B LOUISIANA CORPORATION,105 WEST CALIFORNIA AVENUE,RUSTON,71270,RITE AID #7339,
AK5706215,CHAIN PHARMACY,EAST BATON ROUGE,LA,0.3,0.021417140945850018,30.493,-91.0597,K & B LOUISIANA CORPORATION,11080 GREENWELL SPRINGS RD.,BATON ROUGE,70814,RITE AID #7321,
AK5817284,RETAIL PHARMACY,FRANKLIN,LA,140.6,8.806476962770992,32.1654,-91.7198,K & S DRUGS INC,802 ADAMS STREET,WINNSBORO,71295,,
AK5866578,CHAIN PHARMACY,JEFFERSON,LA,0.1,0.006258720953407529,30.0162,-90.2389,K & B LOUISIANA CORP,KENNER PLAZA SHOPPING CENTER,KENNER,70065,RITE AID #7248,3300 WILLIAMS BLVD
AK6198938,CHAIN PHARMACY,ORLEANS,LA,0.5,0.03019288663956309,29.9197,-90.0108,K & B LOUISIANA CORPORATION,4350 GENERAL DEGAULLE DR.,NEW ORLEANS,70131,RITE AID #7277,
AK6214542,CHAIN PHARMACY,JEFFERSON,LA,0.2,0.009455853680556204,29.8969,-90.1421,K & B LOUISIANA CORP,WESTWOOD SHOPPING CENTER,WESTWEGO,70094,RITE AID #7253,1082 WESTBANK EXPRESWWAY
AK6246006,CHAIN PHARMACY,EAST BATON ROUGE,LA,0.4,0.02249849890413268,30.3946,-91.1104,K & B LOUISIANA CORPORATION,2159 STARING LANE,BATON ROUGE,70810,RITE AID #7318,
AK6309389,CHAIN PHARMACY,ASCENSION,LA,7.6,0.47450867990743223,30.2477,-90.9213,K & B LOUISIANA CORPORATION,1710 NORTH AIRLINE HWY.,GONZALES,70737,RITE AID #7313,
AK6381975,CHAIN PHARMACY,WASHINGTON,LA,7.2,0.44806103165987093,30.7903,-89.8621,K & B LOUISIANA CORP,320 CUMBERLAND STREET,BOGALUSA,70427,RITE AID #7287,SHOPYARD SQUARE
AK6481282,CHAIN PHARMACY,TERREBONNE,LA,6,0.3747785137294911,29.5773,-90.6897,K & B LOUISIANA CORPORATION,1214 GRAND CAILLOU ROAD,HOUMA,70363,RITE AID #7281,
AK6924042,CHAIN PHARMACY,SAINT MARY,LA,29.2,1.829034670061586,29.7067,-91.2004,K & B LOUISIANA CORPORATION,1223 NORTH VICTOR II BLVD.,MORGAN CITY,70380,RITE AID #7283,
AK7510375,CHAIN PHARMACY,CADDO,LA,0.7,0.04269306823026441,32.4557,-93.7214,K & B LOUISIANA CORPORATION,5711 YOUREE DRIVE,SHREVEPORT,71105,RITE AID #7328,
AK7592341,CHAIN PHARMACY,CALCASIEU,LA,0.9,0.05802629014972279,30.1844,-93.2215,K MART PHARMACY,4070 RYAN ST,LAKE CHARLES,70605,,
AK8008852,CHAIN PHARMACY,JEFFERSON,LA,0.2,0.015593876118633884,29.9082,-90.0292,K & B LOUISIANA CORPORATION,497 TERRY PARKWAY,TERRYTOWN,70056,RITE AID #7245,
AK8128363,CHAIN PHARMACY,JEFFERSON,LA,0.3,0.02101808956731189,30.0026,-90.2185,K MART PHARMACY #7223,7000 VETERANS MEMORIAL BLVD,METAIRIE,70003,,
AK8249460,CHAIN PHARMACY,IBERIA,LA,3.4,0.21223372724326972,29.9852,-91.8238,K MART PHARMACY #7061,900 E ADMIRAL DOYLE DR,NEW IBERIA,70560,,
AK8258267,CHAIN PHARMACY,CADDO,LA,0.7,0.046896237356745654,32.4757,-93.7982,K & B LOUISIANA CORPORATION,3810 JEWELLA ROAD,SHREVEPORT,71109,RITE AID #7332,
AK8274730,CHAIN PHARMACY,JEFFERSON DAVIS,LA,8.5,0.5304211196906753,30.2326,-92.6621,K & B LOUISIANA CORP #7303,1208 ELTON RD,JENNINGS,70546,RITE AID #7303,JENNINGS VILLAGE SHOPPING CTR
AK8353930,RETAIL PHARMACY,JEFFERSON,LA,0.1,0.0064964671164805,29.9629,-90.1882,K MART PHARMACY,1400 S CLEARVIEW PARKWAY,NEW ORLEANS,70123,,
AK8400296,CHAIN PHARMACY,JEFFERSON,LA,0.3,0.018786810550642023,30.0154,-90.1823,K & B LOUISIANA CORPORATION,4300 WEST ESPLANADE AVE.,METAIRIE,70006,RITE AID #7240,
AK8555952,CHAIN PHARMACY,VERMILION,LA,5.6,0.35080251045808986,29.978,-92.1093,K & B LOUISIANA CORPORATION,2250 VETERANS MEMORIAL DRIVE,ABBEVILLE,70510,RITE AID #7300,
AK8579762,CHAIN PHARMACY,IBERIA,LA,4.2,0.26055303978636163,29.9969,-91.8028,K & B LOUISIANA CORPORATION,1108 EAST MAIN STREET,NEW IBERIA,70560,RITE AID #7305,
AK8604692,CHAIN PHARMACY,EAST BATON ROUGE,LA,0.3,0.01597855460739211,30.4332,-91.0587,K & B LOUISIANA CORPORATION,2152 S. SHERWOOD FOREST BLVD.,BATON ROUGE,70816,RITE AID #7324,
AK8680919,CHAIN PHARMACY,SAINT MARY,LA,21.3,1.3323657730389835,29.6834,-91.2621,K & B LOUISIANA CORPORATION,1301 HIGHWAY 90 EAST,MORGAN CITY,70380,RITE AID #7284,
AK8717069,CHAIN PHARMACY,EAST BATON ROUGE,LA,0.4,0.022877906241857815,30.5584,-91.132,K & B LOUISIANA CORPORATION,12308 PLANK ROAD,BATON ROUGE,70811,RITE AID #7320,
AK8805535,CHAIN PHARMACY,JEFFERSON,LA,0.2,0.00970616460609903,30.0051,-90.2193,K & B LOUISIANA CORP,RITE AID #7235,METAIRIE,70003,,7060 VETERANS MEMORIAL BLVD
AK8984850,CHAIN PHARMACY,JEFFERSON,LA,0.1,0.00822921441417719,29.9012,-90.0475,K MART PHARMACY #3347,2701 BELLE CHASE HIGHWAY,GRETNA,70053,,
AK9069041,CHAIN PHARMACY,ACADIA,LA,4,0.2513493313840373,30.2304,-92.3825,K & B LOUISIANA CORP,RITE AID #7301,CROWLEY,70526,,2016 NORTH PARKERSON AVENUE
AK9131753,CHAIN PHARMACY,LIVINGSTON,LA,6.6,0.41109218094650307,30.455,-90.9563,K & B LOUISIANA CORPORATION,2308 SOUTH RANGE AVENUE,DENHAM SPRINGS,70726,RITE AID #7312,
AK9199971,CHAIN PHARMACY,LAFOURCHE,LA,5.9,0.3672423889100919,29.801,-90.8467,K & B LOUISIANA CORPORATION,1625 ST. MARY STREET,THIBODAUX,70301,RITE AID #7278,
AK9479014,CHAIN PHARMACY,OUACHITA,LA,0.7,0.04618224606101289,32.5382,-92.104,K & B LOUISIANA CORPORATION,2323 FORSYTHE AVENUE,MONROE,71201,RITE AID #7336,
AK9508257,CHAIN PHARMACY,LAFOURCHE,LA,5.2,0.32675310330300184,29.5489,-90.3454,K & B LOUISIANA CORPORATION,13998 WEST MAIN STREET,LAROSE,70373,RITE AID #7279,
AL3140718,RETAIL PHARMACY,JEFFERSON,LA,0.1,0.008090566395317718,29.8892,-90.0577,MANHATTAN PHARMACY,1708 MANHATTAN BLVD,HARVEY,70058,,SUITE A
AL3398117,RETAIL PHARMACY,EAST BATON ROUGE,LA,1.5,0.09245977374847676,30.6485,-91.1335,MEDICAL PHARMACY,6400 MAIN ST.,ZACHARY,70791,,PO BOX 475
AL3402283,RETAIL PHARMACY,EAST CARROLL,LA,397.9,24.922186716797835,32.806,-91.1724,LOUIS LEONARD MINSKY INC,DBA MINSKYS DRUG STORE,LAKE PROVIDENCE,71254,,405 LAKE ST
AL3414466,RETAIL PHARMACY,BEAUREGARD,LA,79.1,4.955163461427994,30.8546,-93.2887,IDEAL DRUG STORE INC,LE RAY G E,DERIDDER,70634,,610 N PINE
AL3416573,RETAIL PHARMACY,ASCENSION,LA,17.3,1.08064254070203,30.2354,-90.9204,LANDRYS PHARMACY,416 N BURNSIDE,GONZALES,70707,LANDRY JAMES T,P.O. BOX 237
AL3417765,RETAIL PHARMACY,TERREBONNE,LA,6.1,0.38000505695935405,29.6297,-90.7552,BROADMOOR DRUG CENTER,6096 WEST PARK AVE,HOUMA,70364,,
AL3419543,RETAIL PHARMACY,IBERIA,LA,4.7,0.29593218785751524,29.9137,-91.6662,LARROQUE PHARMACY,1305 MAIN STREET,JEANERETTE,70544,,
AL3421954,RETAIL PHARMACY,EVANGELINE,LA,30.1,1.8830323770142432,30.6882,-92.2741,EVANGELINE DRUG STORE INC,10 W MAIN ST,VILLE PLATTE,70586,H.B. LEBAS,P.O. BOX 370
AL4238475,RETAIL PHARMACY,POINTE COUPEE,LA,84.9,5.317476407580359,30.5578,-91.556,LIVONIA THRIF-T-WAY PHARMACY,3066 HWY 78,LIVONIA,70755,,PO BOX 187
AL4578021,RETAIL PHARMACY,CALCASIEU,LA,1.5,0.09138341028402144,30.213,-93.2039,LAKESHORE MEDIC PHARMACY #1,2001 ENTERPRISE BLVD,LAKE CHARLES,70601,,
AL5541607,RETAIL PHARMACY,IBERIA,LA,2.4,0.15110374186639708,29.9242,-91.7814,LYDIA PHARMACY,PO BOX 435,LYDIA,70569,ARCHIE O CHAUVIN,3917 DARNALLE RD
AL7131496,RETAIL PHARMACY,IBERIA,LA,4.2,0.26314404349367676,30.0566,-91.7379,LELEUX'S PHARMACY,100 N. MAIN ST,LOREAUVILLE,70552,,P.O.BOX 421
AL7348279,RETAIL PHARMACY,WEBSTER,LA,36.1,2.2604515359083517,32.6216,-93.2649,LOYE'S PHARMACY INC,814 HOMER RD,MINDEN,71055,,
AL7534868,RETAIL PHARMACY,EAST BATON ROUGE,LA,0,9.268571686302735e-4,30.4171,-91.1791,LSU STUDENT HEALTH CENTER PHA,INFIRMARY ROAD,BATON ROUGE,70803,,
AL8804963,RETAIL PHARMACY,VERNON,LA,79.7,4.993197225673154,31.1373,-93.2689,"LEESVILLE DRUG CO, INC",1019 FERTITTA BLVD,LEESVILLE,71446,,
AL9761429,RETAIL PHARMACY,JEFFERSON,LA,0.3,0.018089940826846968,29.7351,-90.1265,TEWELDE'S LAFITTE DRUGS,PO BOX 10,LAFITTE,70067,,2695 JEAN LAFITTE BOULEVARD
AM2528416,RETAIL PHARMACY,SAINT MARY,LA,18.6,1.1678041643943624,29.7045,-91.2036,"RUSSO'S HEALTH MART PHARM, INC",1124 7TH ST,MORGAN CITY,70380,,
AM2587775,RETAIL PHARMACY,SABINE,LA,81.1,5.077673408064344,31.5609,-93.4718,MANY PROFESSIONAL PHARMACY,220-E HIGHLAND DR,MANY,71449,,
AM3006714,RETAIL PHARMACY,WEBSTER,LA,48.1,3.0138986134551202,32.9963,-93.4598,MALL PHARMACY,531 SOUTH MAIN ST,SPRINGHILL,71075,,
AM3396430,RETAIL PHARMACY,MOREHOUSE,LA,28,1.7558625219816122,32.7781,-91.9155,MOREHOUSE PHARMACEUTICAL CO,LEE'S DRUG AT MMC,BASTROP,71220,,123 WEST MADISON
AM3399816,RETAIL PHARMACY,ALLEN,LA,40,2.5038138683595985,30.4876,-92.8489,MAYES PHARMACY,442 N. 9TH,KINDER,70648,,P. O. BOX 518
AM3400847,RETAIL PHARMACY,SAINT LANDRY,LA,8.1,0.5044766310499638,30.5356,-92.084,MILLER DRUGS INC,209 N MARKET ST,OPELOUSAS,70570,,
AM3407031,RETAIL PHARMACY,CADDO,LA,1.4,0.09055382189154275,32.4815,-93.7632,MITCHELL DRUG STORE #1,3102 LINWOOD AVE,SHREVEPORT,71103,,
AM3411701,RETAIL PHARMACY,TANGIPAHOA,LA,0.3,0.017240047509006318,36.045,-89.4085,MCELVEEN'S PHARMACY,INTER US HWY 51 & TANGIPAHOA,ROSELAND,70456,P.O. BOX 310,63017 COMMERCIAL STREET
AM3413743,RETAIL PHARMACY,SAINT MARY,LA,15.8,0.9927940961874959,29.7093,-91.1991,M C CLINIC PHARMACY INC,1234 DAVID DRIVE,MORGAN CITY,70380,,
AM3413983,RETAIL PHARMACY,SAINT MARY,LA,14.2,0.8883971581144264,29.7051,-91.2024,M C STANDARD DRUG STORE INC,1120 EIGHTH STREET,MORGAN CITY,70380,DBA STANDARD DRUG,PO BOX 1717
AM3416612,RETAIL PHARMACY,LA SALLE,LA,49.1,3.0773094962487146,31.6825,-92.1195,CASH DRUGS,1825 EAST OAK STREET,JENA,71342,MARCLO ENTERPRISES INC,SUITE A
AM3422184,RETAIL PHARMACY,LAFAYETTE,LA,0.9,0.053232465184212895,30.32,-92.0464,MELANCON DRUG STORE,206 N. CHURCH ST,CARENCRO,70520,,
AM5075052,RETAIL PHARMACY,JACKSON,LA,34.5,2.160708001572523,32.2412,-92.7149,MURPHY-NASH INC PHARMACY,200 JIMMIE DAVIS BLVD,JONESBORO,71251,,
AM5280968,RETAIL PHARMACY,CATAHOULA,LA,394.7,24.72609421490667,31.7705,-91.8207,MEDI THRIFT DRUGS,P.O. BOX 205,HARRISONBURG,71340,,302 BUSHLEY STREET
AM5781718,RETAIL PHARMACY,CADDO,LA,3.8,0.23559834616829803,32.4931,-93.7458,MEDIC PHARMACY #11,1849 LINE AVE,SHREVEPORT,71101,,
AM5804580,RETAIL PHARMACY,SAINT TAMMANY,LA,0.5,0.030091208013807366,30.3154,-89.9479,MULLER HEALTH MART DRUGS,P O BOX 429,LACOMBE,70445,MULLER GEORGE BELTHAZAR III,27395 HIGHWAY 190
AM6046519,RETAIL PHARMACY,SAINT LANDRY,LA,10.9,0.6813074292532646,30.4878,-92.4282,MAPLE AVENUE PHARMACY,1200 WEST MAPLE AVE,EUNICE,70535,,P O BOX 1002
AM6792027,RETAIL PHARMACY,UNION,LA,29.1,1.8220647458028867,32.9013,-92.2468,MATTES PHARMACY INC,314 MAIN STREET,MARION,71260,,P.O. BOX 17
AM8003864,RETAIL PHARMACY,OUACHITA,LA,0.7,0.04297782039261988,32.5337,-92.1879,MASON'S PHARMACY,MASON HAROLD J,WEST MONROE,71291,,2403 ARKANSAS RD
AM8464810,RETAIL PHARMACY,JEFFERSON DAVIS,LA,28.3,1.772284272903268,30.4812,-92.694,MAYEAUX'S FAMILY PHARMACY,HWY 190/911 MAIN STREET,ELTON,70532,MAYEAUX ANWARD J JR,P.O. BOX 177
AM8526228,RETAIL PHARMACY,IBERIA,LA,8.4,0.527708357682219,29.9971,-91.8233,SOILEAU'S PHARMACY,805 CENTER ST,NEW IBERIA,70560,,
AM9731274,RETAIL PHARMACY,JEFFERSON,LA,1,0.060094206769827345,29.8564,-90.1043,MAJORIA DRUGS #5,2564 BARRATARIA BOULEVARD,MARRERO,70072,,
AM9735993,RETAIL PHARMACY,SAINT BERNARD,LA,130.7,8.189771456000614,29.9456,-89.9706,MUMFREY'S PHARMACY,1021 WEST JUDGE PEREZ DR,CHALMETTE,70043,,
AM9814066,RETAIL PHARMACY,AVOYELLES,LA,8.8,0.5530105065454718,31.0585,-92.0489,MANSURA DRUG STORE,2043 LEGLISE STREET,MANSURA,71350,,
AN3390274,RETAIL PHARMACY,WASHINGTON,LA,18.9,1.186830928055738,30.7859,-89.8637,NIELSENS CITY DRUG STORE,330 AUSTIN ST,BOGALUSA,70427,,
AN5169049,RETAIL PHARMACY,BIENVILLE,LA,80.7,5.051736971602081,32.5494,-92.9225,NEW ARCADIA DRUG INC,1982 NORTH RAILROAD AVE.,ARCADIA,71001,,
AN5730141,RETAIL PHARMACY,CALCASIEU,LA,0.7,0.044476292729396426,30.4496,-93.4255,NICHOLS PHARMACY INC,915 E FOURTH ST,DEQUINCY,70633,,
AN7851961,RETAIL PHARMACY,UNION,LA,31.4,1.9689751720583921,32.7757,-92.4043,NORTHSIDE PHARMACY,201 E FRANKLIN STREET,FARMERVILLE,71241,,
AO2196625,RETAIL PHARMACY,ASCENSION,LA,0.9,0.054555733982014125,30.1063,-90.987,OSCHWALD PHARMACY,411 MISSISSIPPI STREET,DONALDSONVILLE,70346,,
AO4132902,RETAIL PHARMACY,DE SOTO,LA,58.9,3.6889940550185045,31.973,-94.0047,HEADRICK'S DRUG STORE,204 MAIN STREET,LOGANSPORT,71049,OWENS BENNIE G,P.O. BOX 68
AO9803241,RETAIL PHARMACY,JEFFERSON,LA,0.1,0.006985698122905934,29.9168,-90.0484,OAKVIEW PHARMACY,1106 STUMPF BLVD,GRETNA,70053,,
AP1130157,RETAIL PHARMACY,OUACHITA,LA,1.6,0.09745169209544409,32.5154,-92.1502,PROFESSIONAL PHARMACY INC,101 PROFESSIONAL DRIVE,WEST MONROE,71291,,
AP1649512,RETAIL PHARMACY,EVANGELINE,LA,10.4,0.6528539343225888,30.643,-92.4064,POINCIANA CLINIC PHARMACY INC,1508 CAJUN DRIVE,MAMOU,70554,,
AP1737569,RETAIL PHARMACY,SAINT MARTIN,LA,9.7,0.6069416682515327,30.134,-91.8273,ST MARTIN PHARMACY,1117 N MAIN STREET,ST MARTINVLLE,70582,,SUITE A
AP1855494,RETAIL PHARMACY,SAINT TAMMANY,LA,1.4,0.08871102741021214,30.3826,-90.0505,PONTCHARTRAIN PHARMACY INC,2045 HIGHWAY 59,MANDEVILLE,70470,,P.O.BOX 399
AP2131845,RETAIL PHARMACY,AVOYELLES,LA,7.3,0.456347434797332,30.9839,-92.052,PORET'S THRIFTY WAY PHARMACY,1007 SYCAMORE ST,COTTONPORT,71327,PORET'S THRIFTY WAY PHARMACY,P.O. BOX 127
AP2657419,RETAIL PHARMACY,LAFOURCHE,LA,16.7,1.045033753271499,29.5685,-90.3752,PITRES' PHARMACY INC,13087 WEST MAIN STREET,LAROSE,70373,,
AP3393939,RETAIL PHARMACY,TANGIPAHOA,LA,6.8,0.4267850594683707,30.6356,-90.5012,PETES WALGREEN PHARMACY,539 WEST RAILROAD,INDEPENDENCE,70443,,P.O. BOX 626
AP3401609,RETAIL PHARMACY,VERNON,LA,27,1.693659214723221,31.1509,-93.2644,PEARSON DRUGS NO. 4 LLC,900 NORTH FIFTH STREET,LEESVILLE,71496,,P.O.BOX 465
AP3407029,RETAIL PHARMACY,CALCASIEU,LA,1.1,0.06596529153776798,30.2369,-93.3789,PARAGON DRUG STORE,210 G WEST NAPOLEON,SULPHUR,70663,,
AP3420495,RETAIL PHARMACY,CALCASIEU,LA,0.6,0.03936204852378079,30.2344,-93.2041,PRYCE'S PHARMACY INC,331 ENTERPRISE BLVD,LAKE CHARLES,70601,,PO BOX 1323
AP3422843,RETAIL PHARMACY,TERREBONNE,LA,12.7,0.7966032067151744,29.5976,-90.7216,PEOPLES DRUG STORE,7869 MAIN ST,HOUMA,70360,,
AP4515916,RETAIL PHARMACY,VERMILION,LA,2.2,0.13790394549094395,29.9966,-92.2863,PRESCRIPTION SHOPPE,308 N CUSHING,KAPLAN,70548,,
AP5057193,RETAIL PHARMACY,LINCOLN,LA,26.9,1.6858756589650266,32.5299,-92.639,WALTZ PHARMACY,200 NORTH TRENTON,RUSTON,71270,,
AP6304327,RETAIL PHARMACY,TANGIPAHOA,LA,0.9,0.05507934556088393,30.7271,-90.5081,PEOPLES CASH PHARMACY,WILLIAMS JAMES RAYMOND,AMITE,70422,,114 N.E. CENTRAL AVE
AP7197418,RETAIL PHARMACY,TANGIPAHOA,LA,8.2,0.511030149817363,30.6304,-90.5001,PAUL'S PHARMACY INC,345 WEST RAILROAD AVENUE,INDEPENDENCE,70443,,PO BOX 838
AP7519121,RETAIL PHARMACY,RAPIDES,LA,1.8,0.11283232769182303,31.3059,-92.4535,PROFESSIONAL PHARMACY,1414 JACKSON ST,ALEXANDRIA,71301,,
AP8439095,RETAIL PHARMACY,SAINT LANDRY,LA,0.5,0.02984411003188241,30.5433,-92.0749,PLAZA PHARMACY,1200 HOSPITAL DRIVE,OPELOUSAS,70570,,
AR1243980,RETAIL PHARMACY,ORLEANS,LA,0.1,0.008317228147300624,29.9614,-90.062,ROYAL PHARMACY,1101 ROYAL ST,NEW ORLEANS,70116,,
AR1939581,RETAIL PHARMACY,LA SALLE,LA,91.7,5.7430107423026,31.9044,-92.2416,R AND K DRUGS,2832 FRONT STREET,OLLA,71465,,PO BOX 699
AR2594403,RETAIL PHARMACY,RAPIDES,LA,6.3,0.3976704847646512,31.406,-92.4109,RAY'S PHARMACY,5822 C MONROE HWY,BALL,71405,,PO BOX 747
AR3397406,RETAIL PHARMACY,ASSUMPTION,LA,178.9,11.204172064928635,29.954,-91.2124,RICHARD'S PHARMACY,PO BOX 268,PIERRE PART,70339,,3610 HIGHWAY 70
AR3413856,RETAIL PHARMACY,GRANT,LA,212.7,13.325245192942866,31.5205,-92.7082,DIXIE PHARMACY,615 EIGHTH STREET,COLFAX,71417,,
AR3419125,RETAIL PHARMACY,LAFAYETTE,LA,3.4,0.21231358727163133,30.2225,-92.016,ROSSERS PRESCRIPTION SHOP,600 JOHNSTON STREET,LAFAYETTE,70501,,
AR3420166,RETAIL PHARMACY,ASSUMPTION,LA,12.9,0.8070729250573481,29.9924,-91.0553,RYBISKI G U AND CO LTD,1 BLK N OF PO,PAINCOURTVILLE,70391,,
AR6465531,RETAIL PHARMACY,EVANGELINE,LA,18.8,1.1784951241609734,30.6373,-92.4199,REED'S FAMILY PHARMACY,1009 SIXTH ST,MAMOU,70554,,
AR7512230,RETAIL PHARMACY,WEBSTER,LA,36.8,2.3054284906046805,33.002,-93.4606,ROBERTSON'S FAMILY PHARMACY,ROBERTSON RAYMOND ELBERT,SPRINGHILL,71075,,27 REYNOLDS STREET
AS1576024,RETAIL PHARMACY,RAPIDES,LA,5,0.31155667092162775,31.3111,-92.4448,SENTRY DRUGS,1002 THIRD STREET,ALEXANDRIA,71301,,
AS1766673,RETAIL PHARMACY,SAINT LANDRY,LA,3.4,0.21370247423262811,30.4117,-92.0636,SUNSET PHARMACY,907 NAPOLEON AVENUE,SUNSET,70584,,PO BOX 36
AS1854834,RETAIL PHARMACY,LAFOURCHE,LA,1.3,0.08059105954509982,29.6902,-90.5492,SAVOIE'S PHARMACY,4912 HWY 1,MATHEWS,70375,,PO BOX 218
AS1935975,RETAIL PHARMACY,ORLEANS,LA,0.6,0.03979317261790043,30.0183,-89.9664,ST BERNARD DRUGS #3,10200 CHEF MENTEUR HWY,NEW ORLEANS,70127,,
AS2851194,RETAIL PHARMACY,EAST BATON ROUGE,LA,0.9,0.05924758959025344,30.6492,-91.1502,SULLIVAN'S PHARMACY,4651 HWY 19,ZACHARY,70791,,
AS3364318,RETAIL PHARMACY,LAFAYETTE,LA,0.1,0.008985691871376898,30.2354,-92.0944,SCOTT PHARMACY,P.O. BOX 188,SCOTT,70583,,1000 ST MARY ST
AS3413591,RETAIL PHARMACY,SAINT MARTIN,LA,7.3,0.4558202731010887,30.2737,-91.8999,SIMONS PHARMACY,SIMON CARL M,BREAUX BRIDGE,70517,,117 N MAIN ST
AS6490231,RETAIL PHARMACY,SAINT LANDRY,LA,9.1,0.5704823888266112,30.5352,-92.0816,SHUTE'S GOOD NEIGHBOR PHARMACY,205 NORTH MAIN STREET,OPELOUSAS,70570,,
AS7417428,RETAIL PHARMACY,AVOYELLES,LA,4.3,0.2685373760153564,30.9657,-91.9821,SCALLAN'S PHARMACY,115 HIGHWAY 1181,PLAUCHEVILLE,71362,,PO BOX 98
AS7954426,RETAIL PHARMACY,BIENVILLE,LA,116,7.266901659121361,32.3277,-93.2799,"BILL SCOTT'S PHARMACY, INC",2826 BIENVILLE ROAD,RINGGOLD,71068,,
AS8683395,RETAIL PHARMACY,LAFOURCHE,LA,4.1,0.2568821434869757,29.783,-90.807,SOUTHLAND DRUGS NO 2 INC,SOUTHLAND DRUGS NO 2 INC,THIBODAUX,70301,,1117 AUDUBON AVE
AS8915742,RETAIL PHARMACY,OUACHITA,LA,0.3,0.017176745858369966,32.5143,-92.0835,S & S PHARMACY OF MONROE LTD,2951 RENWICK ST,MONROE,71202,,
AS9038262,RETAIL PHARMACY,ASCENSION,LA,11.2,0.7046491586531888,30.2543,-90.8696,ST AMANT PHARMACY,12502 HWY 431,ST. AMANT,70774,,
AS9804445,RETAIL PHARMACY,TANGIPAHOA,LA,7.2,0.45279082778181734,30.4721,-90.4567,SCOTT'S PHARMACY,42242 VETERANS AVE,HAMMOND,70403,,
AT2049826,RETAIL PHARMACY,EVANGELINE,LA,7.7,0.4817525823723424,30.6408,-92.418,THRIFTY WAY PHARMACY OF MAMOU,704 POINCIANA AVENUE STE. A,MAMOU,70554,,
AT2439304,RETAIL PHARMACY,CALCASIEU,LA,3.8,0.23830754756274725,30.1758,-93.2443,LANINGHAM'S THRIFTY WAY,1505 WEST MCNEESE,LAKE CHARLES,70605,,
AT3397494,RETAIL PHARMACY,ALLEN,LA,58.6,3.6696749781748887,30.8022,-92.6713,THRIFT CITY FAMILY PHARMACY,201 HWY 165 SOUTH,OAKDALE,71463,,
AT3397975,RETAIL PHARMACY,SAINT MARTIN,LA,10.4,0.6520834589175917,30.3365,-91.8544,CECILIA PHARMACY,"TAYLOR, GEORGE",CECILIA,70521,,1017 CECILIABRIDGE HWY
AT3398472,RETAIL PHARMACY,LAFAYETTE,LA,1.1,0.0719106115442693,30.2254,-92.0185,TECHE DRUGS INC,509 JEFFERSON ST P.O. BOX 3000,LAFAYETTE,70502,,
AT3419694,RETAIL PHARMACY,SAINT CHARLES,LA,24.5,1.5341463428673683,29.9279,-90.3681,THRIFT VILLAGE DRUGS INC,737 PAUL MAILLARD RD,LULING,70070,,P.O. BOX 26
AT4646812,RETAIL PHARMACY,ACADIA,LA,14,0.8753721371462013,30.404,-92.2159,THRIFTY-WAY PHARMACY,209 S MAIN ST,CHURCH POINT,70525,THRIFTY WAY PHARMACY,
AT4903262,RETAIL PHARMACY,SAINT LANDRY,LA,7.2,0.45031935420810215,30.5468,-91.9622,THRIFTY-WAY-PHARMACY,17695 HIGHWAY 190,PORT BARRE,70577,,P.O. BOX 550
AT5774523,RETAIL PHARMACY,CALCASIEU,LA,1.7,0.10868791020619478,30.2237,-93.1958,THRIF-T-WAY PHARMACY,MAYEUX TED MICHAEL,LAKE CHARLES,70601,,1001 3RD AVE
AT5821790,RETAIL PHARMACY,MADISON,LA,56.7,3.5500624009478914,32.4017,-91.1849,"CITY PHARMACY OF TALLULAH, INC",1009 JOHNSON STREET,TALLULAH,71282,,
AT5854179,RETAIL PHARMACY,SAINT LANDRY,LA,8.6,0.5382504823673451,30.5438,-92.0763,THRIF-T-WAY PHARMACY,517 E. PRUDHOMME LN,OPELOUSAS,70570,,
AT5895149,RETAIL PHARMACY,LIVINGSTON,LA,8.2,0.5146530660013207,30.4939,-90.7478,THRIFT TOWN DRUGS INC,29680 FROST ROAD,LIVINGSTON,70754,,
AT5946693,RETAIL PHARMACY,WASHINGTON,LA,4.2,0.2631811519876669,30.8493,-90.1483,THRIFTY DRUGS,948 15TH AVE PO BOX 586,FRANKLINTON,70438,,
AT6123070,RETAIL PHARMACY,SAINT LANDRY,LA,2.7,0.16786886280220756,30.4026,-91.9343,THRIF-T-WAY PHCY OF,PO BOX 299,ARNAUDVILLE,70512,,412 OLIVE STREET
AT6321070,RETAIL PHARMACY,CLAIBORNE,LA,20.8,1.3003097252531144,32.9612,-93.1393,TED'S PHARMACY,1866 MAIN STREET,HAYNESVILLE,71038,,
AT6350514,RETAIL PHARMACY,WEST CARROLL,LA,188,11.775714054538252,32.8607,-91.3859,THE MEDICINE SHOPPE,411 E. MAIN STREET,OAK GROVE,71263,,P.O. BOX 1003
AT6685412,RETAIL PHARMACY,EVANGELINE,LA,13,0.8117006444238009,30.486,-92.5934,"THRIFT-T-WAY PHARMACY OF, BASI",3131 STAGG AVENUE,BASILE,70515,,PO BOX 426
AT7528512,RETAIL PHARMACY,SAINT MARTIN,LA,6,0.3788409943761834,30.1102,-91.836,THRIF-T-WAY PHARMACY,1620 SOUTH MAIN STREET,ST MARTINVILLE,70582,,
AT7828289,RETAIL PHARMACY,OUACHITA,LA,0.3,0.020678106707991795,32.5827,-91.9885,THOMPSON'S FAMILY PHARMACY,2056 HIGHWAY 139,MONROE,71203,,
AT8003814,RETAIL PHARMACY,LAFAYETTE,LA,3.4,0.2098651146612651,30.2105,-92.0282,LEMAIRES PHARMACY,2039 JOHNSTON STREET,LAFAYETTE,70503,,
AT8029832,RETAIL PHARMACY,VERMILION,LA,10.5,0.6588989072358318,29.9732,-92.1047,THRIFTY WAY PHRMCY OF ABBEVIL,2640 NORTH DRIVE,ABBEVILLE,70510,,
AT8278308,RETAIL PHARMACY,IBERIA,LA,3.3,0.20551664439819403,29.9971,-91.8233,THRIFTY WAY PHARMACY OF NEW 1,805 CENTER STREET,NEW IBERIA,70560,,
AT8634645,RETAIL PHARMACY,SAINT JAMES,LA,116.3,7.283879969050252,30.0415,-90.6983,TOMPKINS PHCY,ZIMMER LANE M,LUTCHER,70071,,2064 W MAIN ST PO BOX 367
AT9042134,RETAIL PHARMACY,ACADIA,LA,1.9,0.11806648156716906,30.2069,-92.3634,THRIFTY-WAY PHARMACY,520 SOUTH EASTERN AVE,CROWLEY,70526,,
AU8944983,RETAIL PHARMACY,LA SALLE,LA,81,5.07401944043947,31.8634,-92.2949,URANIA DRUG STORE,2164 E HARDTNER DRIVE,URANIA,71480,,P.O. BOX 640
AV1765126,RETAIL PHARMACY,IBERVILLE,LA,17.6,1.1004179318928664,30.1688,-91.147,VIALLON DRUG CO INC,32555 BOWIE ST,WHITE CASTLE,70788,,
AV3411268,RETAIL PHARMACY,CONCORDIA,LA,142.7,8.93763442174245,31.6307,-91.5547,VAUGHANS CITY DRUG CO OF CONC,109 EE WALLACE BLVD N,FERRIDAY,71334,,
AV8550659,RETAIL PHARMACY,MOREHOUSE,LA,13.1,0.8184706088860917,32.7766,-91.7957,VILLAGE PHARMACY INC,P.O. BOX 165 308 DAVENPORT,MER ROUGE,71261,,
AW1604049,CHAIN PHARMACY,SAINT TAMMANY,LA,6.2,0.3854674798789829,30.2855,-89.7789,"WALGREEN LOUISIANA CO., INC.",1260 FRONT STREET,SLIDELL,70458,DBA: WALGREENS # 04007,
AW1604051,CHAIN PHARMACY,TANGIPAHOA,LA,14.6,0.9172021659532539,30.5012,-90.4818,"WALGREEN LOUISIANA CO., INC.",1910 W THOMAS,HAMMOND,70401,DBA: WALGREENS # 06027,
AW1863631,CHAIN PHARMACY,SAINT TAMMANY,LA,2.9,0.1845810828740152,30.472,-90.0863,"WALGREEN LOUISIANA CO., INC.",2880 HIGHWAY 190,MANDEVILLE,70471,DBA: WALGREENS # 03440,
AW2056097,RETAIL PHARMACY,JEFFERSON,LA,0,1.8021224098549516e-4,29.8967,-90.0881,WESTBANK PHARMACY,3709 WESTBANK EXPRESSWAY,HARVEY,70058,,STE 1-C
AW2937590,RETAIL PHARMACY,WEST CARROLL,LA,58.3,3.6510546007360882,32.8684,-91.382,WEST CARROLL PHARMACY,706 ROSS ST,OAK GROVE,71263,,
AW3398105,RETAIL PHARMACY,VERNON,LA,32.9,2.061326747826023,31.1436,-93.261,PHOENIX REXALL DRUGS INC,101 N THIRD ST,LEESVILLE,71496,,PO BOX 172
AW3417183,CHAIN PHARMACY,JEFFERSON,LA,0.3,0.017247136003591883,29.892,-90.0595,"WALGREEN LOUISIANA CO., INC.",1544 MANHATTAN BLVD,HARVEY,70058,DBA: WALGREENS # 06637,
AW3417210,CHAIN PHARMACY,CALCASIEU,LA,2.9,0.17985424674752357,30.2125,-93.1808,"WALGREEN LOUISIANA CO., INC.",2000 GERTSNER MEMORIAL DR,LAKE CHARLES,70601,DBA: WALGREENS # 03373,
AW3417222,CHAIN PHARMACY,CALCASIEU,LA,5.3,0.3297551476868527,30.2061,-93.2193,"WALGREEN LOUISIANA CO., INC.",2636 RYAN ST,LAKE CHARLES,70601,DBA: WALGREENS # 06219,
AW3417296,CHAIN PHARMACY,ORLEANS,LA,0.9,0.05931782942508201,30.0036,-90.0393,"WALGREEN LOUISIANA CO., INC.",4200 CHEF MENTEUR HWY,NEW ORLEANS,70126,DBA: WALGREENS # 03024,
AW3417311,CHAIN PHARMACY,ORLEANS,LA,1.7,0.10687126853886439,29.9398,-90.1038,"WALGREEN LOUISIANA CO., INC.",4400 S.CLAIBORNE AVE.,NEW ORLEANS,70125,DBA: WALGREENS # 04451,
AW4304731,RETAIL PHARMACY,LAFOURCHE,LA,11.1,0.6948336955992062,29.4793,-90.3218,WALTER BIRDSALL PHARMACY,118 WEST 111TH STREET,CUT OFF,70345,,P O BOX 840
AW4367290,RETAIL PHARMACY,SAINT LANDRY,LA,3.6,0.22428245782385164,30.616,-92.0571,WASHINGTON THRIF-T-WAY PHCY,310 N MAIN ST,WASHINGTON,70589,WASHINGTON THRIF-T-WAY,PO BOX 446
AW5532874,RETAIL PHARMACY,FRANKLIN,LA,153.6,9.620026021180431,32.1664,-91.7215,WINNSBORO DRUG STORE INC,1213 COMMON ST,WINNSBORO,71295,,
AW5700667,CHAIN PHARMACY,ORLEANS,LA,2.2,0.13807108898419818,29.9216,-90.0135,"WALGREEN LOUISIANA CO., INC.",4110 GENERAL DEGUALLE DR,NEW ORLEANS,70131,DBA: WALGREENS # 03889,
AW5990937,RETAIL PHARMACY,TERREBONNE,LA,3.9,0.24421412874958975,29.4438,-90.5951,WOLFE'S PHARMACY,5458 HWY 56,CHAUVIN,70344,WOLFE PETER HORACE,PO BOX 597
AW7257668,RETAIL PHARMACY,SAINT JAMES,LA,99.1,6.207855051782539,29.9726,-90.7174,WEST ST JAMES PHARMACY,21430 LA HWY 20,VACHERIE,70090,,
AW8560458,RETAIL PHARMACY,BOSSIER,LA,0.8,0.05122658075601463,32.9056,-93.7003,WALKER BROS DRUG,200 EAST PALMETTO,PLAIN DEALING,71064,WALKER BROS DRUG,PO BOX 216
AW8744395,CHAIN PHARMACY,JEFFERSON,LA,0.8,0.05261816699552725,29.8758,-90.0975,"WALGREEN LOUISIANA CO., INC.",1891 BARATARIA BLVD.,MARRERO,70072,DBA: WALGREENS # 03199,
AW9206079,CHAIN PHARMACY,JEFFERSON,LA,0.3,0.02059825393962358,30.0059,-90.2195,"WALGREEN LOUISIANA CO., INC.",7101 VETERANS MEMORIAL BLVD,METAIRIE,70003,DBA: WALGREENS # 15533,
AX7003281,RETAIL PHARMACY,ASCENSION,LA,0.2,0.012719624912811716,30.1036,-90.9887,X-RAY PHARMACY,BOURGEOIS CHARLES T,DONALDSONVILLE,70346,,317 RAILROAD AVE
AY6045909,RETAIL PHARMACY,RICHLAND,LA,44.6,2.796318314345426,32.4623,-91.7482,YANCEYS' PHARMACY,103 CHRISTIAN DRIVE,RAYVILLE,71269,,
BA0282703,CHAIN PHARMACY,TANGIPAHOA,LA,1.9,0.11856042769840817,30.4991,-90.4799,ALBERTSONS LLC,1711 W THOMAS,HAMMOND,70401,SAV-ON PHARMACY #714,
BA1285510,RETAIL PHARMACY,SAINT LANDRY,LA,7,0.4408800629880195,30.5382,-92.0836,ACADIANA PHARMACY,507 NORTH MARKET ST,OPELOUSAS,70570,,
BA1411379,RETAIL PHARMACY,JEFFERSON DAVIS,LA,90.3,5.655621666891152,30.2224,-92.6578,ARDOIN'S CRESCENT DRUG STORE,254 NORTH MAIN STREET,JENNINGS,70546,AMOS LEE ARDOIN,PO BOX 1205
BA1552618,CHAIN PHARMACY,BOSSIER,LA,6.9,0.43201050330944024,32.5308,-93.6987,ALBERTSONS LLC,3121 E TEXAS ST,BOSSIER CITY,71111,SAV-ON PHARMACY #4220,
BA1994133,RETAIL PHARMACY,AVOYELLES,LA,0.1,0.00544246373131246,30.9745,-92.034,AVOYELLES CORRECT'L CTR PHCY,1630 PRISON RD,COTTONPORT,71327,,
BA2244123,CHAIN PHARMACY,RAPIDES,LA,4.6,0.28679310744270253,31.2743,-92.4633,ALBERTSONS LLC,2265 S. MACARTHUR DRIVE,ALEXANDRIA,71301,SAV-ON PHARMACY #3215,
BA2514847,CHAIN PHARMACY,SAINT TAMMANY,LA,0.5,0.032214763699692686,30.473,-90.0864,SAV-A CENTER PHARMACY #081,3450 HIGHWAY 190,MANDEVILLE,70471,,
BA2552114,CHAIN PHARMACY,EAST BATON ROUGE,LA,0.1,0.008867607933119177,30.4061,-91.0151,ALBERTSONS LLC,15232 GEORGE O'NEAL ROAD,BATON ROUGE,70817,SAV-ON PHARMACY #3713,
BA2915241,CHAIN PHARMACY,LAFAYETTE,LA,0.5,0.029161139095148537,30.1565,-92.051,ALBERTSONS LLC,4400 AMBASSADOR CAFFERY PKWY,LAFAYETTE,70508,SAV-ON PHARMACY #719,
BA3075048,CHAIN PHARMACY,EAST BATON ROUGE,LA,0.2,0.013301906052809074,30.4221,-91.1413,ALBERTSONS LLC,2950 COLLEGE DRIVE,BATON ROUGE,70808,SAV-ON PHARMACY #709,
BA3106122,CHAIN PHARMACY,CALCASIEU,LA,0.8,0.04706850068841402,30.1853,-93.2201,ALBERTSONS LLC,4060 RYAN STREET,LAKE CHARLES,70605,ALBERTSONS PHARMACY #717,
BA4336269,CHAIN PHARMACY,LAFAYETTE,LA,0.5,0.029997771311010363,30.2057,-92.0008,ALBERTSONS LLC,DBA SAV-ON PHARMACY #2718,LAFAYETTE,70501,,1818 EVANGELINE THRUWAY
BA4823793,CHAIN PHARMACY,EAST BATON ROUGE,LA,0.1,0.004005067001665435,30.5778,-91.1255,"ALBERTSON'S PHARMACY, #2737",14500 PLANK RD,BAKER,70714,,
BA5377696,RETAIL PHARMACY,EAST BATON ROUGE,LA,0,8.951749269573831e-4,30.392,-91.0973,INTERLINK PHARMACEUTICALS,8490 PICARDY AVE BLD600BATON R,BATON ROUGE,70809,,
BA5676006,CHAIN PHARMACY,ASCENSION,LA,3.3,0.2089075898025497,30.2453,-90.9216,ALBERTSONS,DBA SAV-ON PHARMACY #2748,GONZALES,70737,,1603 N AIRLINE HIGHWAY
BA5785590,CHAIN PHARMACY,EAST BATON ROUGE,LA,0.3,0.021504073332458684,30.445,-91.1405,ALBERTSONS LLC,4857 GOVERNMENT ST,BATON ROUGE,70806,SAV-ON PHARMACY #3750,
BA5925283,RETAIL PHARMACY,EAST BATON ROUGE,LA,0,1.4411517698527043e-4,30.4787,-91.1097,ASSOCIATED VETERNIARY SERVICE,3205 LANIER DRIVE,BATON ROUGE,70814,,
BA5926893,CHAIN PHARMACY,EAST BATON ROUGE,LA,0.1,0.0037642302578671906,30.4814,-91.0905,"ALBERTSONS, #2749",DBA SAV-ON PHARMACY #2749,BATON ROUGE,70814,,8950 GREENWELL SPRINGS ROAD
BA5991167,CHAIN PHARMACY,OUACHITA,LA,0.5,0.028463539234278492,32.5491,-92.0775,ALBERTSONS LLC,DBA SAV-ON PHARMACY #4196,MONROE,71201,,2801 STERLINGTON
BA6101911,RETAIL PHARMACY,OUACHITA,LA,0.7,0.041787546582614,32.6932,-92.074700000000007,MEDIC PHARMACY,"MEDIC PHARMACY OF BASTROP, INC",STERLINGTON,71280,,601 HWY 2
BA6145684,CHAIN PHARMACY,LAFAYETTE,LA,0.9,0.054891728087096386,30.1399,-91.9487,ALBERTSONS LLC,1210 ALBERTSON PARKWAY,BROUSSARD,70518,SAV-ON PHARMACY #2756,
BA6406486,RETAIL PHARMACY,ASSUMPTION,LA,61.9,3.87625242317647,29.9403,-91.0239,"ASSUMPTION PHARMACY, INC",120 WASHINGTON STREET,NAPOLEONVILLE,70390,,PO BOX 368
BA6803767,RETAIL PHARMACY,RAPIDES,LA,11.8,0.741830743806435,31.2832,-92.4623,APOTHECARY PHARMACY INC,3311 PRESCOTT RD,ALEXANDRIA,71301,RAY'S APOTHECARY PHARMACY,STE 110
BA6985228,CHAIN PHARMACY,LAFAYETTE,LA,0.5,0.033744106480979724,30.1983,-92.0737,ALBERTSONS LLC,2863 AMBASSADOR CAFFERY,LAFAYETTE,70506,SAV-ON PHARMACY #775,
BA7088532,CHAIN PHARMACY,EAST BATON ROUGE,LA,0.2,0.01110348393295512,30.3572,-91.0082,ALBERTSONS LLC,15128 AIRLINE HWY,BATON ROUGE,70817,SAV-ON PHARMACY #3747,
BA7262621,CHAIN PHARMACY,EAST BATON ROUGE,LA,0.1,0.009314894395580404,30.3556,-91.1111,ALBERTSONS LLC,9960 BLUEBONNET BLVD.,BATON ROUGE,70810,SAV-ON PHARMACY #3792,
BA7415208,RETAIL PHARMACY,JEFFERSON,LA,3.2,0.19943597014368064,29.9445,-90.1873,ASPEN PHARMACY,5745 PLAUCHE CT.,HARAHAN,70123,,
BA7569669,RETAIL PHARMACY,LAFOURCHE,LA,8.2,0.5118246889606698,29.6993,-90.5594,"AL DAVIS PHARMACY, INC",4708 HWY 1,RACELAND,70394,,
BA7593482,CHAIN PHARMACY,CALCASIEU,LA,0.5,0.03138091171088245,30.1706,-93.2654,ALBERTSONS LLC,2750 COUNTRY CLUB BLVD,LAKE CHARLES,70605,ALBERTSONS PHARMACY #2798,
BA7690832,RETAIL PHARMACY,SAINT TAMMANY,LA,2.2,0.13890614947309624,30.4808,-90.038,ABITA PHARMACY,22107 B HIGHWAY 36,ABITA SPRINGS,70420,,
BA8081539,RETAIL PHARMACY,JEFFERSON,LA,0.1,0.0032998989660027777,29.9635,-90.1655,ALPHA PHARMACEUTICAL COMPANY,3813 JEFFERSON HIGHWAY,JEFFERSON,70121,,
BA8326616,RETAIL PHARMACY,LAFAYETTE,LA,1.6,0.10188802303325269,30.2035,-92.017,ACADIANA PRESCRIPTION SHOP,454 HEYMANN BLVD,LAFAYETTE,70503,ACADIANA PRESCRIPTION SHOP,
BA8533362,RETAIL PHARMACY,JEFFERSON,LA,0.3,0.019870058918118893,29.9374,-90.1912,AVITA DRUGS LLC,6226 JEFFERSON HIGHWAY,HARAHAN,70123,,SUITE G
BA8641260,RETAIL PHARMACY,JEFFERSON,LA,1.1,0.0663511194725594,30.0332,-90.2379,"AMERIHEALTH MEDS, LLC",4232 WILLIAMS BOULEVARD,KENNER,70065,,SUITE 106
BA8781494,RETAIL PHARMACY,LIVINGSTON,LA,14.9,0.9346312831789367,30.5045,-90.5817,ALBANY PHARMACY LLC,19089 FLORIDA BLVD,ALBANY,70711,DBA ALBANY,
BB0157544,RETAIL PHARMACY,IBERVILLE,LA,3.2,0.1986327920657648,30.4226,-91.439,BRYAN FAMILY PHARMACY,17275 HIGHWAY 77,GROSSE TETE,70740,,
BB0359895,RETAIL PHARMACY,JEFFERSON,LA,2.4,0.15143948353027958,29.8917,-90.0367,BELLEMEADE DISCOUNT DRUGS,119 BELLEMEADE BLVD,GRETNA,70056,,
BB1915341,RETAIL PHARMACY,OUACHITA,LA,0,2.8821844863295937e-4,32.5288,-92.1477,BARRX INST'L PHCY SERVICE,2715 NORTH 7TH ST,WEST MONROE,71291,,
BB2469751,RETAIL PHARMACY,ALLEN,LA,61.3,3.8405775102164497,30.622,-92.7735,PHIL'S PHARMACY,805 WEST 7TH AVENUE,OBERLIN,70655,,PO BOX 189
BB3309588,RETAIL PHARMACY,EAST BATON ROUGE,LA,0.2,0.01461713641998867,30.4247,-91.1585,BOLTON HEALTH MART,2958 PERKINS RD,BATON ROUGE,70808,,
BB3548356,RETAIL PHARMACY,JACKSON,LA,392.3,24.570104072417735,32.241,-92.7125,MITCHELL'S PHARMACY,202 E MAIN ST,JONESBORO,71251,DWAYNE MITCHELL,
BB3854090,CHAIN PHARMACY,CALCASIEU,LA,2.4,0.14927864685054923,30.2251,-93.375,BROOKSHIRE BROTHERS PHARM 47,1612 RUTH ST,SULPHUR,70663,,
BB4283393,RETAIL PHARMACY,RAPIDES,LA,2.1,0.13116350801284718,31.3883,-92.6701,BOONE'S PHARMACY,513 ULSTER STREET,BOYCE,71409,,PO BOX 791
BB4335560,CHAIN PHARMACY,OUACHITA,LA,1,0.06409972857338336,32.5256,-92.04,BROOKSHIRE PHARMACY #22,7920 DESIARD,MONROE,71203,,
BB4335572,CHAIN PHARMACY,OUACHITA,LA,0.8,0.05013060348175801,32.518,-92.16,BROOKSHIRE PHARMACY #42,3426 CYPRESS SUITE 16,WEST MONROE,71291,,
BB4560391,CHAIN PHARMACY,CADDO,LA,0.8,0.048081548411753675,32.4558,-93.7473,BROOKSHIRE PHARMACY #18,5828 LINE AVE,SHREVEPORT,71106,,
BB4560404,CHAIN PHARMACY,CADDO,LA,2,0.12311475472605679,32.5585,-93.782,BROOKSHIRE PHARMACY #24,3000 N MARKET STREET,SHREVEPORT,71107,,
BB4560428,CHAIN PHARMACY,CADDO,LA,2.6,0.1620354093183451,32.4016,-93.8066,BROOKSHIRE PHARMACY #037,9250 MANSFIELD ROAD,SHREVEPORT,71118,,
BB4560430,CHAIN PHARMACY,BOSSIER,LA,11.8,0.73669467181362,32.5569,-93.6106,BROOKSHIRE PHARMACY,1125 HWY 80,HAUGHTON,71037,,
BB4560442,CHAIN PHARMACY,CADDO,LA,0.9,0.05667027231899683,32.4787,-93.8672,BROOKSHIRE PHARMACY,3620 PINES ROAD,SHREVEPORT,71119,,
BB4560454,CHAIN PHARMACY,CADDO,LA,0.9,0.05639986864278285,32.4824,-93.7406,BROOKSHIRE PHARMACY,510 KINGS HIGHWAY,SHREVEPORT,71104,,
BB4560478,CHAIN PHARMACY,CADDO,LA,1.6,0.10189968165468777,32.3998,-93.7627,BROOKSHIRE PHARMACY,388 BERT KOUNS,SHREVEPORT,71106,,
BB4724161,RETAIL PHARMACY,SAINT LANDRY,LA,7.2,0.4503933450316337,30.4102,-92.0617,BRINKHAUS PHARMACY,988 NAPOLEAN AVE,SUNSET,70584,,SUNSET
BB5031959,CHAIN PHARMACY,UNION,LA,106.8,6.688500488666118,32.7689,-92.3912,BROOKSHIRE PHARMACY,1018 STERLINGTON HWY,FARMERVILLE,71241,,
BB5058513,RETAIL PHARMACY,TERREBONNE,LA,0.8,0.05305434092841205,29.5984,-90.7096,BONVILLAIN PHARMACY,7505 MAIN ST,HOUMA,70360,,
BB5241447,RETAIL PHARMACY,CATAHOULA,LA,272.6,17.073724317285,31.6275,-91.8129,BROOKS DRUGS,"OLLA PHARMACY, INC",JONESVILLE,71343,,104 MOUND ST
BB5713804,CHAIN PHARMACY,BOSSIER,LA,11.4,0.7135854184224074,32.4583,-93.6626,BROOKSHIRE PHARMACY,4918 BARKSDALE BLVD,BOSSIER CITY,71112,,
BB5723336,CHAIN PHARMACY,CALCASIEU,LA,1.8,0.11503760767779876,30.452,-93.4399,BROOKSHIRE BROTHERS PHARMACY #31,300 WEST 4TH STREET,DEQUINCY,70633,,
BB5831195,CHAIN PHARMACY,DE SOTO,LA,55.3,3.461578516432378,32.0384,-93.697,BROOKSHIRE PHARMACY,1117 POLK STREET,MANSFIELD,71052,,
BB6025349,RETAIL PHARMACY,WEST BATON ROUGE,LA,100.1,6.272733932760771,30.4611,-91.2058,BOURG'S DRUG,484 LOUISIANA AVENUE,PORT ALLEN,70767,,PO BOX 47
BB6234835,RETAIL PHARMACY,TANGIPAHOA,LA,3.6,0.22318484512655212,30.9372,-90.5188,BROWN MORRIS PHARMACY INC,717 AVENUE G,KENTWOOD,70444,,
BB6458269,CHAIN PHARMACY,CLAIBORNE,LA,176.5,11.055368219865583,32.8014,-93.055,BROOKSHIRE PHARMACY,817 WEST MAIN,HOMER,71040,,
BB6526872,CHAIN PHARMACY,BOSSIER,LA,5.4,0.3398484101237886,32.6781,-93.745,BROOKSHIRE PHARMACY #17,6280 HWY 3,BENTON,71006,,
BB6547876,RETAIL PHARMACY,ALLEN,LA,35.7,2.234569184201965,30.622,-92.7735,BUCK'S PHARMACY,MDB-DRUGS,OBERLIN,70655,,805 W 7TH AVENUE
BB6623284,RETAIL PHARMACY,MADISON,LA,305.5,19.132772594621912,32.4117,-91.185,BEENE'S DRUG STORE,402 EAST DARROW ST.,TALLULAH,71282,,
BB6639047,CHAIN PHARMACY,OUACHITA,LA,1.5,0.09261152882579467,32.5676,-92.0727,BROOKSHIRE PHARMACY,4070 STERLINGTON ROAD,MONROE,71203,,
BB6988337,RETAIL PHARMACY,SAINT LANDRY,LA,8,0.49946938034987837,30.4873,-92.422,BELLARD'S FAMILY PHARMACY,621 WEST MAPLE AVENUE,EUNICE,70535,,
BB7100441,RETAIL PHARMACY,CALCASIEU,LA,0.2,0.011126297477561994,30.1979,-93.2164,BOUDREAUX'S NEW DRUG STORE,404 EAST PRIEN LAKE RD,LAKE CHARLES,70601,,
BB7166780,RETAIL PHARMACY,EAST BATON ROUGE,LA,0,0.0010763650287033237,30.4436,-91.0989,BATON ROUGE SPECIALTY PHARMACY,748 CHEVELLE DR,BATON ROUGE,70806,,
BB7307906,CHAIN PHARMACY,BEAUREGARD,LA,162.1,10.155882526329597,30.8466,-93.2987,BROOKSHIRE BROTHERS #50,1103 WEST FIRST ST,DERIDDER,70634,,
BB7570232,CHAIN PHARMACY,NATCHITOCHES,LA,30.8,1.9277144953688665,31.774,-93.1076,SUPER 1 PHARMACY #604,5696 HIGHWAY 1 BYPASS,NATCHITOCHES,71457,,
BB8637160,RETAIL PHARMACY,LIVINGSTON,LA,12.7,0.7938577949100849,30.5735,-90.9573,"BERNARD'S FAMILY PHARMACY, LLC",34876 LA HWY 1019,DENHAM SPRINGS,70706,,
BB9804142,RETAIL PHARMACY,ORLEANS,LA,1.5,0.09356987849160006,30.0055,-90.1178,BUCKTOWN PHARMACY,234 W. HARRISON AVE,NEW ORLEANS,70124,,SUITE B
BC0182775,RETAIL PHARMACY,CALCASIEU,LA,0,1.5118979608608137e-4,30.2028,-93.2012,CHILDREN'S PHARMACY INC,2903 FIRST AVE,LAKE CHARLES,70601,,
BC1113961,RETAIL PHARMACY,JEFFERSON,LA,0.5,0.02952147726082416,30.0023,-90.1382,C'S DISCOUNT PHARMACY,"CIOLINO PHARMACY, INC.",METAIRIE,70005,,1401 VETERANS BLVD
BC1903118,RETAIL PHARMACY,LINCOLN,LA,16.4,1.0300257052247541,32.5277,-92.6396,THE CORNER DRUG STORE,120 S. TRENTON,RUSTON,71270,,
BC2209751,RETAIL PHARMACY,JEFFERSON,LA,0.3,0.016291685002179344,29.9162,-90.0497,CARR DRUGS,91 WESTBANK EXPRESSWAY,GRETNA,70053,,SUITE 550
BC3134361,RETAIL PHARMACY,VERMILION,LA,11.7,0.7303280794432795,29.9573,-92.0338,CASHWAY PHARMACY,112 EAST EDWARDS,ERATH,70533,,
BC3527504,RETAIL PHARMACY,CONCORDIA,LA,14.8,0.9260497212982577,31.6296,-91.5522,"CONCORDIA DRUG, INC",114 LOUISIANA AVE,FERRIDAY,71334,,
BC3575315,RETAIL PHARMACY,RAPIDES,LA,0.9,0.0547157832068164,31.3202,-92.4361,CENLA PROFESSIONAL PHARMACY,610 MAIN STREET,PINEVILLE,71360,,
BC3728702,RETAIL PHARMACY,EAST BATON ROUGE,LA,0,0.001745170120785556,30.5294,-91.1792,COMMUNITY PHARMACY,9136 SCOTLAND AVE,BATON ROUGE,70807,,
BC4204272,RETAIL PHARMACY,OUACHITA,LA,0.7,0.04567499269821759,32.5292,-92.0976,COMMUNITY HEALTH PHARMACY,2600 TOWER DRIVE,MONROE,71201,,SUITE 102
BC4730481,RETAIL PHARMACY,JEFFERSON DAVIS,LA,48,3.003626685461862,30.2268,-92.6577,CASSIDY'S PHARMACY INC,710 N MAIN ST,JENNINGS,70546,,PO BOX 957
BC5069275,RETAIL PHARMACY,SAINT MARY,LA,20.9,1.3122253274122442,29.8038,-91.4992,CASHWAY PHCY OF FRANKLIN,1419 HOSPITAL AVENUE,FRANKLIN,70538,,
BC5191274,RETAIL PHARMACY,CATAHOULA,LA,18.5,1.1608379455093045,31.625,-91.8146,CHAMPLIN'S PHARMACY,409 MOUND STREET,JONESVILLE,71343,,PO BOX 161
BC5276008,CHAIN PHARMACY,TERREBONNE,LA,1.6,0.10075986056709949,29.5928,-90.6767,"LOUISIANA CVS PHARMACY, L.L.C.",9407 E PARK AVE,HOUMA,70363,DBA: CVS/PHARMACY  # 05611,
BC5276010,CHAIN PHARMACY,WASHINGTON,LA,21.7,1.3580974611283037,30.7912,-89.8643,"LOUISIANA CVS PHARMACY, L.L.C.",329 SUPERIOR AVE.,BOGALUSA,70427,DBA: CVS/PHARMACY  # 05277,
BC5276022,CHAIN PHARMACY,TANGIPAHOA,LA,5.3,0.3327123532441741,30.5024,-90.4863,"LOUISIANA CVS PHARMACY, L.L.C.",2300 WEST THOMAS ST,HAMMOND,70401,DBA: CVS/PHARMACY  # 05280,
BC5276046,CHAIN PHARMACY,TERREBONNE,LA,0.6,0.03777787878076313,29.5925,-90.7032,"LOUISIANA CVS PHARMACY, L.L.C.",437 GRAND CAILLOU RD,HOUMA,70363,DBA: CVS/PHARMACY # 05281,
BC5276072,CHAIN PHARMACY,OUACHITA,LA,1.7,0.10858653736364512,32.5167,-92.1069,"LOUISIANA CVS PHARMACY, L.L.C.",1710 LOUISVILLE AVE.,MONROE,71201,DBA: CVS/PHARMACY  # 05513,
BC5276109,CHAIN PHARMACY,LAFAYETTE,LA,0.4,0.02412184324101442,30.2141,-92.0472,"LOUISIANA CVS PHARMACY, L.L.C.",705 BERTRAND DRIVE,LAFAYETTE,70506,DBA: CVS/PHARMACY  # 05284,
BC5276111,CHAIN PHARMACY,LAFAYETTE,LA,0.6,0.03647005100967841,30.2434,-92.007,"LOUISIANA CVS PHARMACY, L.L.C.",1315 MOSS ST EXT,LAFAYETTE,70501,DBA: CVS/PHARMACY  # 05285,
BC5276135,CHAIN PHARMACY,SAINT LANDRY,LA,1.5,0.09590853205606997,30.5206,-92.0759,"LOUISIANA CVS PHARMACY, L.L.C.",827 CRESWELL LN,OPELOUSAS,70570,DBA: CVS/PHARMACY  # 05291,
BC5276147,CHAIN PHARMACY,TANGIPAHOA,LA,5.2,0.3250876595466459,30.4376,-90.4439,"LOUISIANA CVS PHARMACY, L.L.C.",285 WEST PINE,PONCHATOULA,70454,DBA: CVS/PHARMACY  # 05294,
BC5276159,CHAIN PHARMACY,EVANGELINE,LA,0.5,0.033368986429995674,30.6919,-92.2615,"LOUISIANA CVS PHARMACY, L.L.C.",903 TATE COVE RD,VILLE PLATTE,70586,DBA: CVS/PHARMACY # 05298,
BC5276161,CHAIN PHARMACY,AVOYELLES,LA,31.4,1.9696385859625953,31.1236,-92.0698,"LOUISIANA CVS PHARMACY, L.L.C.",120 TUNICA DR. EAST,MARKSVILLE,71351,DBA: CVS/PHARMACY  # 05306,
BC5276197,CHAIN PHARMACY,EAST BATON ROUGE,LA,0.1,0.004478114915145481,30.4214,-91.1515,"LOUISIANA CVS PHARMACY, L.L.C.",3651 PERKINS RD,BATON ROUGE,70808,DBA: CVS/PHARMACY # 05312,
BC5276200,CHAIN PHARMACY,EAST BATON ROUGE,LA,0.2,0.014616253851807348,30.4581,-91.0577,"LOUISIANA CVS PHARMACY, L.L.C.",11430 FLORIDA BLVD,BATON ROUGE,70815,DBA: CVS/PHARMACY  # 05317,
BC5276212,CHAIN PHARMACY,EAST BATON ROUGE,LA,0.4,0.022361186833415755,30.5028,-91.1308,"LOUISIANA CVS PHARMACY, L.L.C.",5889 AIRLINE HWY,BATON ROUGE,70805,DBA: CVS/PHARMACY  # 05319,
BC5276224,CHAIN PHARMACY,EAST BATON ROUGE,LA,0.3,0.020544900767831907,30.5887,-91.1674,"LOUISIANA CVS PHARMACY, L.L.C.",1214 MAIN ST,BAKER,70714,DBA: CVS/PHARMACY  # 05321,
BC5276236,CHAIN PHARMACY,EAST BATON ROUGE,LA,0.5,0.029223398734837584,30.4105,-91.0781,"LOUISIANA CVS PHARMACY, L.L.C.",9608 JEFFERSON HWY,BATON ROUGE,70809,DBA: CVS/PHARMACY  # 05322,
BC5276250,CHAIN PHARMACY,BOSSIER,LA,8.2,0.5160684738978133,32.5294,-93.7022,"LOUISIANA CVS PHARMACY, L.L.C.",3001 E. TEXAS ST.,BOSSIER CITY,71111,DBA: CVS/PHARMACY  # 05323,
BC5276262,CHAIN PHARMACY,EAST BATON ROUGE,LA,0.4,0.0231934400612287,30.4435,-91.1547,"LOUISIANA CVS PHARMACY, L.L.C.",3384 GOVERNMENT ST,BATON ROUGE,70806,DBA: CVS/PHARMACY  # 05324,
BC5276274,CHAIN PHARMACY,CADDO,LA,0.5,0.02875723510035608,32.5369,-93.7694,"LOUISIANA CVS PHARMACY, L.L.C.",1540 N. MARKET ST,SHREVEPORT,71107,DBA: CVS/PHARMACY  # 05325,
BC5276298,CHAIN PHARMACY,CADDO,LA,0.5,0.03040431254082612,32.4557,-93.7806,"LOUISIANA CVS PHARMACY, L.L.C.",2755 HOLLYWOOD AVE,SHREVEPORT,71108,DBA: CVS/PHARMACY  # 05326,
BC5276325,CHAIN PHARMACY,CADDO,LA,0.3,0.020962564582967955,32.4801,-93.723,"LOUISIANA CVS PHARMACY, L.L.C.",3300 YOUREE DR,SHREVEPORT,71105,DBA: CVS/PHARMACY  # 05329,
BC5276337,CHAIN PHARMACY,SAINT TAMMANY,LA,3.1,0.19623212010573235,30.2842,-89.765,"LOUISIANA CVS PHARMACY, L.L.C.",1305 GAUSE BLVD.,SLIDELL,70458,DBA: CVS/PHARMACY  # 05330,
BC5276351,CHAIN PHARMACY,CADDO,LA,0.7,0.04621168718235857,32.4429,-93.7192,"LOUISIANA CVS PHARMACY, L.L.C.",7004 YOUREE DR,SHREVEPORT,71105,DBA: CVS/PHARMACY  # 05331,
BC5276375,CHAIN PHARMACY,LIVINGSTON,LA,6.4,0.4008690857669415,30.4764,-90.9543,"LOUISIANA CVS PHARMACY, L.L.C.",640 S RANGE AVENUE,DENHAM SPRINGS,70726,DBA: CVS/PHARMACY  # 05334,
BC5276399,CHAIN PHARMACY,JEFFERSON,LA,0.2,0.01199917053428968,30.0027,-90.1358,"LOUISIANA CVS PHARMACY, L.L.C.",1107 VETERANS MEMORIAL BLVD,METAIRIE,70005,DBA: CVS/PHARMACY  # 05337,
BC5276402,CHAIN PHARMACY,TERREBONNE,LA,1.5,0.0940295663971314,29.6067,-90.742,"LOUISIANA CVS PHARMACY, L.L.C.",7015 PARK AVE,HOUMA,70364,DBA: CVS/PHARMACY  # 05338,
BC5276414,CHAIN PHARMACY,EAST BATON ROUGE,LA,0.2,0.013915912892665788,30.4098,-91.0153,"LOUISIANA CVS PHARMACY, L.L.C.",15255 GEORGE ONEAL RD #A,BATON ROUGE,70817,DBA: CVS/PHARMACY  # 05343,
BC5276426,CHAIN PHARMACY,OUACHITA,LA,1.6,0.10027666603805394,32.5516,-92.0778,"LOUISIANA CVS PHARMACY, L.L.C.",2901 STERLINGTON RD,MONROE,71203,DBA: CVS/PHARMACY  # 05344,
BC5276438,CHAIN PHARMACY,WEBSTER,LA,25.7,1.6113164496187813,32.621,-93.2693,"LOUISIANA CVS PHARMACY, L.L.C.",606 HOMER RD.,MINDEN,71055,DBA: CVS/PHARMACY  # 05345,
BC5276440,CHAIN PHARMACY,CADDO,LA,0.7,0.041318343752296635,32.4429,-93.8615,"LOUISIANA CVS PHARMACY, L.L.C.",6935 PINES RD,SHREVEPORT,71129,DBA: CVS/PHARMACY  # 05360,
BC5276452,CHAIN PHARMACY,BOSSIER,LA,5.2,0.3231932264689535,32.4604,-93.6634,"LOUISIANA CVS PHARMACY, L.L.C.",4890 BARKSDALE BLVD.,BOSSIER CITY,71112,DBA: CVS/PHARMACY  # 05396,
BC5286592,CHAIN PHARMACY,SAINT TAMMANY,LA,1,0.06421094233086501,30.4779,-90.1064,"LOUISIANA CVS PHARMACY, L.L.C.",627 W 21ST AVE,COVINGTON,70433,DBA: CVS/PHARMACY  # 05614,
BC5286605,CHAIN PHARMACY,EAST BATON ROUGE,LA,0.3,0.01977976319752412,30.4832,-91.0892,"LOUISIANA CVS PHARMACY, L.L.C.",9006 GREENWELL SPRINGS RD,BATON ROUGE,70814,DBA: CVS/PHARMACY  # 05318,
BC5286617,CHAIN PHARMACY,JEFFERSON,LA,0.2,0.013764809196825338,30.0138,-90.1581,"LOUISIANA CVS PHARMACY, L.L.C.",3535 SEVERN AVE,METAIRIE,70002,DBA: CVS/PHARMACY  # 05342,
BC5286629,CHAIN PHARMACY,SAINT CHARLES,LA,44.6,2.7909972756105796,29.9872,-90.364,"LOUISIANA CVS PHARMACY, L.L.C.",12589 AIRLINE HWY,DESTREHAN,70047,DBA: CVS/PHARMACY  # 05442,
BC5286631,CHAIN PHARMACY,WASHINGTON,LA,17.3,1.082887429942455,30.8465,-90.1526,"LOUISIANA CVS PHARMACY, L.L.C.",1116 WASHINGTON ST,FRANKLINTON,70438,DBA: CVS/PHARMACY  # 05451,
BC5286643,CHAIN PHARMACY,SAINT TAMMANY,LA,1.2,0.076673162223755,30.2861,-89.7357,"LOUISIANA CVS PHARMACY, L.L.C.",2103 GAUSE BLVD E,SLIDELL,70461,DBA: CVS/PHARMACY  # 05473,
BC5286655,CHAIN PHARMACY,EAST BATON ROUGE,LA,0.2,0.015521503211151673,30.4116,-91.0509,"LOUISIANA CVS PHARMACY, L.L.C.",11705 COURSEY BLVD.,BATON ROUGE,70816,DBA: CVS/PHARMACY  # 05510,
BC5286667,CHAIN PHARMACY,SAINT TAMMANY,LA,1.1,0.06968013224215985,30.4993,-90.1056,"LOUISIANA CVS PHARMACY, L.L.C.",2101 COLLINS BLVD.,COVINGTON,70433,DBA: CVS/PHARMACY  # 05469,
BC5289839,CHAIN PHARMACY,EAST BATON ROUGE,LA,0.5,0.02859655556726109,30.5426,-91.0295,"LOUISIANA CVS PHARMACY, L.L.C.",14360 WAX ROAD,BATON ROUGE,70818,DBA: CVS/PHARMACY  # 05374,
BC5289853,CHAIN PHARMACY,JEFFERSON,LA,0.2,0.011856616750460734,30.0166,-90.198,"LOUISIANA CVS PHARMACY, L.L.C.",4950 W ESPLANADE AVE,METAIRIE,70006,DBA: CVS/PHARMACY  # 05383,
BC5289865,CHAIN PHARMACY,SAINT TAMMANY,LA,1.3,0.08379263150597249,30.4723,-90.0866,"LOUISIANA CVS PHARMACY, L.L.C.",2915 HWY 190,MANDEVILLE,70471,DBA: CVS/PHARMACY  # 05435,
BC5312727,CHAIN PHARMACY,ORLEANS,LA,0.4,0.02479186481970779,29.9239,-90.0209,"LOUISIANA CVS PHARMACY, L.L.C.",3621 GENERAL DEGAULLE DR.,NEW ORLEANS,70131,DBA: CVS/PHARMACY  # 05387,
BC5312741,CHAIN PHARMACY,JEFFERSON,LA,0.2,0.013265538365590305,29.9759,-90.1752,"LOUISIANA CVS PHARMACY, L.L.C.",4301 AIRLINE DRIVE,METAIRIE,70001,DBA: CVS/PHARMACY  # 05441,
BC5312753,CHAIN PHARMACY,CALCASIEU,LA,0.4,0.02472691267807728,30.3022,-93.2012,"LOUISIANA CVS PHARMACY, L.L.C.",366 SAM HOUSTON JONES PKWY,LAKE CHARLES,70611,DBA: CVS/PHARMACY  # 05455,
BC5312765,CHAIN PHARMACY,ORLEANS,LA,0.7,0.04204496583711041,29.925,-90.1081,"LOUISIANA CVS PHARMACY, L.L.C.",4901 PRYTANIA ST,NEW ORLEANS,70115,DBA: CVS/PHARMACY  # 05503,
BC5312777,CHAIN PHARMACY,LAFOURCHE,LA,13.9,0.873533105776432,29.4713,-90.3154,"LOUISIANA CVS PHARMACY, L.L.C.",16804 W. MAIN ST,CUT OFF,70345,DBA: CVS/PHARMACY  # 05432,
BC5312791,CHAIN PHARMACY,SAINT CHARLES,LA,16.9,1.0614299387604476,29.9191,-90.3741,"LOUISIANA CVS PHARMACY, L.L.C.",1313 PAUL MAILLARD RD/PO BOX 50,LULING,70070,DBA: CVS/PHARMACY  # 05528,
BC5312804,CHAIN PHARMACY,JEFFERSON,LA,0.2,0.014101974823946916,29.9107,-90.2018,"LOUISIANA CVS PHARMACY, L.L.C.",2850 HIGHWAY 90 WEST,AVONDALE,70094,DBA: CVS/PHARMACY  # 05543,
BC5312816,CHAIN PHARMACY,LAFAYETTE,LA,0.5,0.032216453247080355,30.1597,-91.9905,"LOUISIANA CVS PHARMACY, L.L.C.",3604 PINHOOK RD.,BROUSSARD,70518,DBA: CVS/PHARMACY  # 05560,
BC5312830,CHAIN PHARMACY,VERMILION,LA,3.6,0.22414840290231014,29.9811,-92.1236,"LOUISIANA CVS PHARMACY, L.L.C.",1100 VETERANS MEMORIAL DR,ABBEVILLE,70510,DBA: CVS/PHARMACY  # 05275,
BC5312842,CHAIN PHARMACY,ASCENSION,LA,4,0.2484455949187659,30.1018,-90.9944,"LOUISIANA CVS PHARMACY, L.L.C.",20 WEST TENTH ST.,DONALDSONVILLE,70346,DBA: CVS/PHARMACY  # 05278,
BC5312854,CHAIN PHARMACY,ST JOHN THE BAPTIST,LA,11.8,0.7414518639595817,30.0732,-90.4957,"LOUISIANA CVS PHARMACY, L.L.C.",1500 W AIRLINE HWY,LA PLACE,70068,DBA: CVS/PHARMACY  # 05288,
BC5312866,CHAIN PHARMACY,IBERIA,LA,3.3,0.20384539263921375,29.9865,-91.8264,"LOUISIANA CVS PHARMACY, L.L.C.",820-G E ADMIRAL DOYLE DR,NEW IBERIA,70560,DBA: CVS/PHARMACY  # 05290,
BC5312880,CHAIN PHARMACY,IBERVILLE,LA,30.2,1.8924003363907163,30.2813,-91.2262,"LOUISIANA CVS PHARMACY, L.L.C.",24600 CHURCH ST.,PLAQUEMINE,70764,DBA: CVS/PHARMACY  # 05293,
BC5312892,CHAIN PHARMACY,ACADIA,LA,3.3,0.20679497011592457,30.2503,-92.2714,"LOUISIANA CVS PHARMACY, L.L.C.",1409 THE BOULEVARD,RAYNE,70578,DBA: CVS/PHARMACY  # 05295,
BC5312905,CHAIN PHARMACY,LAFOURCHE,LA,9.2,0.5734260068403155,29.8008,-90.8169,"LOUISIANA CVS PHARMACY, L.L.C.",201 N. CANAL BLVD.,THIBODAUX,70301,DBA: CVS/PHARMACY  # 05297,
BC5312929,CHAIN PHARMACY,LAFOURCHE,LA,9.4,0.5901324178320794,29.704,-90.5662,"LOUISIANA CVS PHARMACY, L.L.C.",4572 HWY 1,RACELAND,70394,DBA: CVS/PHARMACY  # 05304,
BC5312931,CHAIN PHARMACY,RAPIDES,LA,0.1,0.008496216463978547,31.3342,-92.4273,"CVS EGL MILITARY PINEVILLE LA, INC.",CVS/PHARMACY #05309,PINEVILLE,71360,,1634 MILITARY HWY
BC5312943,CHAIN PHARMACY,JEFFERSON,LA,0.2,0.013156831554072608,29.9972,-90.2405,"LOUISIANA CVS PHARMACY, L.L.C.","2242 WILLIAMS BLVD.,",KENNER,70062,DBA: CVS/PHARMACY  # 05333,
BC5312979,CHAIN PHARMACY,JEFFERSON,LA,0.2,0.014525052127312523,29.9575,-90.2171,"LOUISIANA CVS PHARMACY, L.L.C.",9643-B JEFFERSON HWY,RIVER RIDGE,70123,DBA: CVS/PHARMACY  # 05340,
BC5312981,CHAIN PHARMACY,JEFFERSON,LA,0.4,0.027852148017471264,30.0218,-90.2565,"LOUISIANA CVS PHARMACY, L.L.C.",820 W. ESPLANADE AVE.,KENNER,70065,DBA: CVS/PHARMACY  # 05349,
BC5321928,CHAIN PHARMACY,OUACHITA,LA,2.6,0.1617559336898927,32.5168,-92.1608,"LOUISIANA CVS PHARMACY, L.L.C.",3423 CYPRESS ST,WEST MONROE,71291,DBA: CVS/PHARMACY  # 05521,
BC5322855,CHAIN PHARMACY,JEFFERSON,LA,0.2,0.014074472843324165,29.8758,-90.0492,"LOUISIANA CVS PHARMACY, L.L.C.",1600 LAPALCO BLVD.,HARVEY,70058,DBA: CVS/PHARMACY  # 05599,
BC5322867,CHAIN PHARMACY,LAFAYETTE,LA,0.7,0.04187310523981728,30.2318,-92.0865,"LOUISIANA CVS PHARMACY, L.L.C.",111 WESTGATE RD.,LAFAYETTE,70506,DBA: CVS/PHARMACY  # 05554,
BC5347922,CHAIN PHARMACY,ASCENSION,LA,1.3,0.08453038195218979,30.2469,-90.9201,"LOUISIANA CVS PHARMACY, L.L.C.",1624 N. BURNSIDE,GONZALES,70737,DBA: CVS/PHARMACY  # 05354,
BC5347946,CHAIN PHARMACY,RAPIDES,LA,0.4,0.02472229303821433,31.3057,-92.4546,"LOUISIANA CVS PHARMACY, L.L.C.",721 BOLTON AVE,ALEXANDRIA,71301,DBA: CVS/PHARMACY  # 05276,
BC5347960,CHAIN PHARMACY,VERMILION,LA,5.4,0.3360625252829922,29.9979,-92.2862,"LOUISIANA CVS PHARMACY, L.L.C.",100 S. CUSHING AVE.,KAPLAN,70548,DBA: CVS/PHARMACY  # 05282,
BC5347972,CHAIN PHARMACY,LAFAYETTE,LA,0.4,0.02642180918009429,30.1937,-92.0597,"LOUISIANA CVS PHARMACY, L.L.C.",4406 JOHNSTON ST,LAFAYETTE,70503,DBA: CVS/PHARMACY  # 05283,
BC5347984,CHAIN PHARMACY,SAINT MARY,LA,11.1,0.6978864844561167,29.697,-91.1958,"LOUISIANA CVS PHARMACY, L.L.C.",6502 HIGHWAY 182,MORGAN CITY,70380,DBA: CVS/PHARMACY  # 05289,
BC5348001,CHAIN PHARMACY,SAINT LANDRY,LA,4.1,0.25781308711330697,30.5323,-92.071,"LOUISIANA CVS PHARMACY, L.L.C.",1013 EAST LANDRY STREET,OPELOUSAS,70570,DBA: CVS/PHARMACY  # 05292,
BC5348013,CHAIN PHARMACY,SAINT MARTIN,LA,5.5,0.3467644265053763,30.1087,-91.8377,"LOUISIANA CVS PHARMACY, L.L.C.",1730 S MAIN ST,SAINT MARTINVILLE,70582,DBA: CVS/PHARMACY  # 05296,
BC5348025,CHAIN PHARMACY,IBERIA,LA,6.3,0.39189948386434426,30.001,-91.8008,"LOUISIANA CVS PHARMACY, L.L.C.",185 N. LEWIS ST..,NEW IBERIA,70563,DBA: CVS/PHARMACY  # 05299,
BC5348049,CHAIN PHARMACY,LAFAYETTE,LA,1,0.0599698163058515,30.168,-92.0363,"LOUISIANA CVS PHARMACY, L.L.C.",1920 KALISTE SALOOM,LAFAYETTE,70508,DBA: CVS/PHARMACY  # 05443,
BC5348087,CHAIN PHARMACY,LAFAYETTE,LA,0.8,0.05069046187974147,30.2725,-92.0075,"LOUISIANA CVS PHARMACY, L.L.C.",3754 MOSS ST,LAFAYETTE,70507,DBA: CVS/PHARMACY  # 05511,
BC5348102,CHAIN PHARMACY,RAPIDES,LA,1.8,0.11471143335488904,31.3334,-92.3984,"LOUISIANA CVS PHARMACY, L.L.C.",100 EDGEWOOD DR.,PINEVILLE,71360,DBA: CVS/PHARMACY  # 05544,
BC5348164,CHAIN PHARMACY,RAPIDES,LA,0.5,0.031996180765679734,31.2783,-92.4796,"LOUISIANA CVS PHARMACY, L.L.C.",4443 JACKSON ST,ALEXANDRIA,71303,DBA: CVS/PHARMACY  # 05607,
BC5348190,CHAIN PHARMACY,CALCASIEU,LA,0.3,0.016067222065133713,30.2125,-93.359,"LOUISIANA CVS PHARMACY, L.L.C.",1508 S. BEGLIS PKWY.,SULPHUR,70663,DBA: CVS/PHARMACY  # 05612,
BC5606530,RETAIL PHARMACY,LINCOLN,LA,37.3,2.3342788148758706,32.4476,-92.6672,CLINIC RX PHARMACY,604 BELUE LANE,RUSTON,71270,,SUITE A
BC5710757,CHAIN PHARMACY,EAST BATON ROUGE,LA,0.3,0.01837878187186801,30.4704,-91.1627,"LOUISIANA CVS PHARMACY, L.L.C.",2520 PLANK RD,BATON ROUGE,70805,DBA: CVS/PHARMACY  # 05615,
BC5726902,CHAIN PHARMACY,LIVINGSTON,LA,13.2,0.8243137953381221,30.4872,-90.8624,"LOUISIANA CVS PHARMACY, L.L.C.",29881 WALKER RD. SOUTH/ PO BOX 1448,WALKER,70785,DBA: CVS/PHARMACY  # 05617,
BC5736725,RETAIL PHARMACY,EAST BATON ROUGE,LA,1,0.06087570650798773,30.5393,-91.0278,CENTRAL DRUG STORE INC,9952 SULLIVAN ROAD,BATON ROUGE,70818,DBA: CENTRAL PHARMACY,
BC5854573,RETAIL PHARMACY,JEFFERSON,LA,0.1,0.003446563226864515,30.016,-90.1901,C'S DISCOUNT PHARMACY #2,4650 WEST ESPLANADE,METAIRIE,70006,,
BC6025337,RETAIL PHARMACY,JEFFERSON,LA,0.4,0.0245567338345852,29.9515,-90.1879,CAMPO MEDICAL PHARMACY,660 DISTRIBUTORS ROW #A & B,RIVER RIDGE,70123,DBA OMNICARE OF NEW ORLEANS,
BC6169432,RETAIL PHARMACY,WASHINGTON,LA,13.2,0.8293619467183112,30.9071,-90.0131,CREEL'S FAMILY PHARMACY,26496 HWY 62,FRANKLINTON,70438,CREELS FAMILY PHARMACY,
BC6211724,RETAIL PHARMACY,NATCHITOCHES,LA,18.6,1.167350983276982,31.7517,-93.0612,CADES PHARMACY LLC,1053 PARKWAY DRIVE,NATCHITOCHES,71457,,
BC6324949,RETAIL PHARMACY,AVOYELLES,LA,10.8,0.6748919533756017,30.9599,-92.1947,CITY DRUG STORE,1010 SHIRLEY ROAD,BUNKIE,71322,,
BC6531722,RETAIL PHARMACY,RAPIDES,LA,0.1,0.007034260887490663,31.2731,-92.4539,"COMPLETE VITAL CARE, INC",3212 INDUSTRIAL STREET,ALEXANDRIA,71301,,
BC6939346,RETAIL PHARMACY,LAFAYETTE,LA,0,0.001792232868420082,30.2013,-92.0167,CARMICHAEL'S PHARMACY,1472 SOUTH COLLEGE ROAD,LAFAYETTE,70503,,STE 102
BC7221461,RETAIL PHARMACY,ACADIA,LA,1.7,0.10739115325079852,30.2194,-92.376,CARMICHAEL'S VITAL CARE,"CARMICHAEL,THEODORE S",CROWLEY,70526,,1004 NORTH PARKERSON
BC7225130,RETAIL PHARMACY,EAST FELICIANA,LA,369.7,23.15923461137823,30.5397,-91.1373,CURRY PHARMACY,10463  PLANK RD (HWY 67),CLINTON,70722,,PO BOX 266
BC7334547,RETAIL PHARMACY,JEFFERSON,LA,0.6,0.03556130248646359,29.8906,-90.0945,CARR DRUGS #4,1111 MEDICAL CENTER BLVD.,MARRERO,70072,,SUITE N116
BC7441948,RETAIL PHARMACY,ACADIA,LA,16.5,1.031876830730879,30.3956,-92.2089,COMMUNITY PHARMACY,731 SOUTH MAIN STREET SUITE-B,CHURCH POINT,70525,,P.O. BOX 130
BC7528954,RETAIL PHARMACY,BIENVILLE,LA,62.7,3.9271109375920488,32.5493,-92.9213,CHRIS COLE'S PHARMACY,1887 FIRST STREET,ARCADIA,71001,,PO BOX 744
BC7691199,RETAIL PHARMACY,CADDO,LA,0,3.7157040648560754e-4,32.4032,-93.8002,COMPLETE VITAL CARE,2530 BERT KOUNS,SHREVEPORT,71118,OF SHREVEPORT,SUITE 116
BC7714036,RETAIL PHARMACY,ACADIA,LA,1.3,0.08231330029978083,30.4073,-92.2183,CHURCH POINT PHARMACY LLC,300 N MAIN STREET,CHURCH POINT,70525,,
BC8157439,RETAIL PHARMACY,VERMILION,LA,15.9,0.995445272229237,29.9726,-92.1077,CASHWAY PHARMACY OF ABBEVILLE,2509 CHARITY ST,ABBEVILLE,70510,,
BC8227779,RETAIL PHARMACY,ORLEANS,LA,0,7.559621286280006e-4,29.9237,-90.0925,COMMUNITY OXYGEN SERVICE,DBA COMMUNITY PHARMACY SERVICE,NEW ORLEANS,70115,,3600 CHESTNUT STREET
BC8457625,CHAIN PHARMACY,WINN,LA,5,0.31236168764155425,31.927,-92.6387,"LOUISIANA CVS PHARMACY, L.L.C.",100 W MAIN STREET,WINNFIELD,71483,CVS/PHARMACY # 05620,
BC8466751,RETAIL PHARMACY,RAPIDES,LA,0.1,0.0036817325544053667,31.2833,-92.462,CHRISTUS ST FRANCES CABRINI O,3330 MASONIC DRIVE,ALEXANDRIA,71301,,
BC8694083,CHAIN PHARMACY,WASHINGTON,LA,4.5,0.2825230172794407,30.7876,-89.8653,"CVS EGL BOGALUSA LA, INC.",CVS/PHARMACY #07901,BOGALUSA,70427,,133 CUMBERLAND STREET
BC8724141,RETAIL PHARMACY,CALCASIEU,LA,0.7,0.04516268071874723,30.183,-93.248,"CARMICHAEL'S PHARMACY, IHP",1725 WEST SALE,LAKE CHARLES,70605,,
BC8738241,RETAIL PHARMACY,RICHLAND,LA,56.9,3.5611555435128865,32.3198,-91.7756,CLINIC PHARMACY OF MANGHAM,PO BOX 270 ARCHIBALD 71218,MANGHAM,71259,,252 HWY 132 MANGHAM 71259
BC8883034,RETAIL PHARMACY,IBERIA,LA,3.5,0.21618258865074097,29.915,-91.6672,CITY PHARMACY & HOME MEDICAL,1411 W. MAIN STREET,JEANERETTE,70544,,
BC9099602,CHAIN PHARMACY,EAST BATON ROUGE,LA,0.3,0.02049328875768537,30.3931,-91.1595,"LOUISIANA CVS PHARMACY, L.L.C.","5360 HIGHLAND RD.,",BATON ROUGE,70808,DBA: CVS/PHARMACY  # 08309,
BC9201334,RETAIL PHARMACY,ALLEN,LA,31.3,1.9631838349941804,30.4855,-92.8507,COUSHATTA FAMILY PHARMACY,121 TURKEY LANE,KINDER,70648,,
BC9263954,RETAIL PHARMACY,RAPIDES,LA,3,0.18818008011159015,31.3342,-92.3839,CROSSROADS PHARMACY,3592 HIGHWAY 28 EAST,PINEVILLE,71360,,
BC9343889,CHAIN PHARMACY,CADDO,LA,1.4,0.08917377116712963,32.4029,-93.8049,"LOUISIANA CVS PHARMACY, L.L.C.",9194 MANSFIELD RD,SHREVEPORT,71118,DBA: CVS/PHARMACY  # 05327,
BC9585398,RETAIL PHARMACY,ACADIA,LA,8.4,0.5245171332714168,30.4073,-92.2183,CHURCH POINT PHARMACY,300 N MAIN ST,CHURCH POINT,70525,,
BC9615975,RETAIL PHARMACY,LAFAYETTE,LA,4.1,0.2593508865053042,30.2338,-92.0955,CASHWAY PHARMACY OF SCOTT,5900 CAMERON ST SUITE 100,SCOTT,70583,,P.O. BOX 809
BC9631373,RETAIL PHARMACY,SAINT BERNARD,LA,285.3,17.872466369289658,29.9587,-89.9928,C & C PHARMACY LLC,7540 WEST JUDGE PEREZ DRIVE,ARABI,70032,,
BC9686291,RETAIL PHARMACY,LAFAYETTE,LA,0,7.451676065421231e-4,30.2506,-92.0226,CENTRAL PHARMACY SERVICES LLC,811 MARTIN LUTHER KING JR DRIVE,LAFAYETTE,70501,,
BC9839880,RETAIL PHARMACY,AVOYELLES,LA,8,0.4998454990050862,31.0461,-91.9814,C & R DRUGS,10663 HWY 1,MOREAUVILLE,71355,,PO BOX 145
BD0400325,RETAIL PHARMACY,SAINT CHARLES,LA,162.2,10.156806442207055,29.9863,-90.3646,DESTREHAN DISCOUNT PHARMACY,"3001 ORMOND BLVD., SUITE A",DESTREHAN,70047,,
BD1184415,RETAIL PHARMACY,AVOYELLES,LA,55.7,3.488014092612843,31.1312,-92.0807,DON'S PHARMASAVE,134 RUE MEDECINE,MARKSVILLE,71351,DON'S PHARMASAVE,P O BOX 99
BD2179744,RETAIL PHARMACY,TANGIPAHOA,LA,7.6,0.4750428758170085,30.4645,-90.4581,DON CHAUCER'S PHARMACY,15794 MEDICAL ARTS PLAZA,HAMMOND,70403,,
BD2509187,RETAIL PHARMACY,VERNON,LA,139.1,8.71595879074878,31.1372,-93.2637,DON'S FAMILY PHARMACY,100 EAST FERTITTA BLVD,LEESVILLE,71446,,
BD3012147,RETAIL PHARMACY,TANGIPAHOA,LA,10,0.6292172229585961,30.7241,-90.5108,DRIVE IN DRUG STORE,228 SOUTH FIRST ST,AMITE,70422,,
BD3533545,RETAIL PHARMACY,JEFFERSON,LA,2.3,0.1457120174845502,29.8892,-90.0961,DEKLE DRUGS,4621 WICHERS DRIVE,MARRERO,70072,,
BD4297099,RETAIL PHARMACY,EVANGELINE,LA,18.1,1.1338053612031573,30.6357,-92.4194,DESHOTELS DRUGS,900 SIXTH STREET,MAMOU,70554,,
BD5174266,RETAIL PHARMACY,CALCASIEU,LA,1,0.06469030788940433,30.2404,-93.0134,GUIDRY'S HEALTHCENTER PHARM,204 SOUTH THOMPSON AVENUE,IOWA,70647,RICKY T GUIDRY,PO BOX 760
BD5662386,RETAIL PHARMACY,JEFFERSON,LA,3.3,0.2057176072791178,29.8883,-90.1002,DAVE'S PHARMACY,1220 BARATARIA BLVD,MARRERO,70072,,
BD6011958,RETAIL PHARMACY,AVOYELLES,LA,7.7,0.4834167751440304,30.9857,-91.8206,PLAUCHE DRUGS,116 JJJ LANE,SIMMESPORT,71369,,
BD8158277,RETAIL PHARMACY,LAFAYETTE,LA,0.8,0.04838186018255163,30.1687,-92.0646,D AND L FAMILY PHARMACY INC,3810 AMBASSADOR CAFFERY PARKWAY,LAFAYETTE,70503,,SUITE 210
BD8378906,RETAIL PHARMACY,SAINT MARY,LA,6,0.3773108491807946,29.8369,-91.5444,BALDWIN DRUGS,PO BOX 507,BALDWIN,70514,,702 MAIN
BD8724660,RETAIL PHARMACY,JEFFERSON,LA,0,2.3701035463171684e-5,29.9535,-90.1868,DIABETES MANAGEMENT & SUPPLIES,#10 COMMERCE CT,NEW ORLEANS,70123,,SUITE B
BD9140170,RETAIL PHARMACY,EAST BATON ROUGE,LA,0.1,0.00545955247306896,30.4248,-91.1067,DIABETIC PHARMACY CENTRE,7970 JEFFERSON HWY,BATON ROUGE,70809,,SUITE A
BD9496919,RETAIL PHARMACY,WASHINGTON,LA,0.1,0.004434038880889672,30.7894,-89.8604,BOGALUSA MEDICAL CENTER,400 MEMPHIS ST,BOGALUSA,70427,MEDICATION PROCUREMENT PROGRAM,
BD9523588,RETAIL PHARMACY,CADDO,LA,0.1,0.003977996792579025,32.5356,-93.828,DAVID RAINES COMMUNITY HEALTH CENTER PHARMACY,1625 DAVID RAINES ROAD,SHREVEPORT,71107,,
BD9727655,RETAIL PHARMACY,ASCENSION,LA,6.2,0.3868346575068413,30.2551,-90.9896,DUTCHTOWN PHARMACY,13011 HIGHWAY 73,GEISMER,70734,,
BD9854541,RETAIL PHARMACY,LAFOURCHE,LA,8.9,0.5548060935639259,29.7785,-90.8187,D & M PHARMACY,1772 CANAL BLVD,THIBODAUX,70301,,
BE0190936,RETAIL PHARMACY,RICHLAND,LA,58,3.631650763253273,32.4562,-91.4936,E W THOMSON DRUG CO,213 DEPOT STREET,DELHI,71232,,
BE3780308,RETAIL PHARMACY,SAINT TAMMANY,LA,2.5,0.15654259514164134,30.3608,-89.7529,EVANS DRUG MART,P.O. BOX 129,PEARL RIVER,70452,,64288 HIGHWAY 41
BE5276008,CHAIN PHARMACY,TERREBONNE,LA,5,0.3110562953372229,29.5928,-90.6767,"LOUISIANA CVS PHARMACY, L.L.C.",9407 E PARK AVE,HOUMA,70363,DBA: CVS/PHARMACY  # 05611,
BE5276010,CHAIN PHARMACY,WASHINGTON,LA,15.2,0.9516786149767689,30.7912,-89.8643,"LOUISIANA CVS PHARMACY, L.L.C.",329 SUPERIOR AVE.,BOGALUSA,70427,DBA: CVS/PHARMACY  # 05277,
BE5276022,CHAIN PHARMACY,TANGIPAHOA,LA,4.8,0.3032796701181093,30.5024,-90.4863,"LOUISIANA CVS PHARMACY, L.L.C.",2300 WEST THOMAS ST,HAMMOND,70401,DBA: CVS/PHARMACY  # 05280,
BE5276046,CHAIN PHARMACY,TERREBONNE,LA,2.5,0.15574782542296128,29.5925,-90.7032,"LOUISIANA CVS PHARMACY, L.L.C.",437 GRAND CAILLOU RD,HOUMA,70363,DBA: CVS/PHARMACY # 05281,
BE5276072,CHAIN PHARMACY,OUACHITA,LA,1,0.05978443835791739,32.5167,-92.1069,"LOUISIANA CVS PHARMACY, L.L.C.",1710 LOUISVILLE AVE.,MONROE,71201,DBA: CVS/PHARMACY  # 05513,
BE5276109,CHAIN PHARMACY,LAFAYETTE,LA,0.4,0.027728142660559438,30.2141,-92.0472,"LOUISIANA CVS PHARMACY, L.L.C.",705 BERTRAND DRIVE,LAFAYETTE,70506,DBA: CVS/PHARMACY  # 05284,
BE5276111,CHAIN PHARMACY,LAFAYETTE,LA,0.7,0.04076784606079564,30.2434,-92.007,"LOUISIANA CVS PHARMACY, L.L.C.",1315 MOSS ST EXT,LAFAYETTE,70501,DBA: CVS/PHARMACY  # 05285,
BE5276135,CHAIN PHARMACY,SAINT LANDRY,LA,1.8,0.11253324103741814,30.5206,-92.0759,"LOUISIANA CVS PHARMACY, L.L.C.",827 CRESWELL LN,OPELOUSAS,70570,DBA: CVS/PHARMACY  # 05291,
BE5276147,CHAIN PHARMACY,TANGIPAHOA,LA,4.6,0.29034799955245655,30.4376,-90.4439,"LOUISIANA CVS PHARMACY, L.L.C.",285 WEST PINE,PONCHATOULA,70454,DBA: CVS/PHARMACY  # 05294,
BE5276159,CHAIN PHARMACY,EVANGELINE,LA,3.5,0.21995262476137709,30.6919,-92.2615,"LOUISIANA CVS PHARMACY, L.L.C.",903 TATE COVE RD,VILLE PLATTE,70586,DBA: CVS/PHARMACY # 05298,
BE5276161,CHAIN PHARMACY,AVOYELLES,LA,18.1,1.1318145507521777,31.1236,-92.0698,"LOUISIANA CVS PHARMACY, L.L.C.",120 TUNICA DR. EAST,MARKSVILLE,71351,DBA: CVS/PHARMACY  # 05306,
BE5276197,CHAIN PHARMACY,EAST BATON ROUGE,LA,0.1,0.005151676562983921,30.4214,-91.1515,"LOUISIANA CVS PHARMACY, L.L.C.",3651 PERKINS RD,BATON ROUGE,70808,DBA: CVS/PHARMACY # 05312,
BE5276200,CHAIN PHARMACY,EAST BATON ROUGE,LA,0.2,0.013705778055153595,30.4581,-91.0577,"LOUISIANA CVS PHARMACY, L.L.C.",11430 FLORIDA BLVD,BATON ROUGE,70815,DBA: CVS/PHARMACY  # 05317,
BE5276212,CHAIN PHARMACY,EAST BATON ROUGE,LA,0.3,0.0174059728535504,30.5028,-91.1308,"LOUISIANA CVS PHARMACY, L.L.C.",5889 AIRLINE HWY,BATON ROUGE,70805,DBA: CVS/PHARMACY  # 05319,
BE5276224,CHAIN PHARMACY,EAST BATON ROUGE,LA,0.2,0.014246902243436827,30.5887,-91.1674,"LOUISIANA CVS PHARMACY, L.L.C.",1214 MAIN ST,BAKER,70714,DBA: CVS/PHARMACY  # 05321,
BE5276236,CHAIN PHARMACY,EAST BATON ROUGE,LA,0.3,0.01892216802233568,30.4105,-91.0781,"LOUISIANA CVS PHARMACY, L.L.C.",9608 JEFFERSON HWY,BATON ROUGE,70809,DBA: CVS/PHARMACY  # 05322,
BE5276250,CHAIN PHARMACY,BOSSIER,LA,6,0.3740753880183899,32.5294,-93.7022,"LOUISIANA CVS PHARMACY, L.L.C.",3001 E. TEXAS ST.,BOSSIER CITY,71111,DBA: CVS/PHARMACY  # 05323,
BE5276262,CHAIN PHARMACY,EAST BATON ROUGE,LA,0.3,0.017463593287493404,30.4435,-91.1547,"LOUISIANA CVS PHARMACY, L.L.C.",3384 GOVERNMENT ST,BATON ROUGE,70806,DBA: CVS/PHARMACY  # 05324,
BE5276274,CHAIN PHARMACY,CADDO,LA,0.4,0.025529476431496716,32.5369,-93.7694,"LOUISIANA CVS PHARMACY, L.L.C.",1540 N. MARKET ST,SHREVEPORT,71107,DBA: CVS/PHARMACY  # 05325,
BE5276298,CHAIN PHARMACY,CADDO,LA,0.5,0.031820273438913374,32.4557,-93.7806,"LOUISIANA CVS PHARMACY, L.L.C.",2755 HOLLYWOOD AVE,SHREVEPORT,71108,DBA: CVS/PHARMACY  # 05326,
BE5276313,CHAIN PHARMACY,CADDO,LA,0,0.0016133148658420947,32.4029,-93.8049,ECKERD DRUGS #0561,9194 MANSFIELD RD,SHREVEPORT,71118,,
BE5276325,CHAIN PHARMACY,CADDO,LA,0.3,0.018762062323356758,32.4801,-93.723,"LOUISIANA CVS PHARMACY, L.L.C.",3300 YOUREE DR,SHREVEPORT,71105,DBA: CVS/PHARMACY  # 05329,
BE5276337,CHAIN PHARMACY,SAINT TAMMANY,LA,1.8,0.11031842468379507,30.2842,-89.765,"LOUISIANA CVS PHARMACY, L.L.C.",1305 GAUSE BLVD.,SLIDELL,70458,DBA: CVS/PHARMACY  # 05330,
BE5276351,CHAIN PHARMACY,CADDO,LA,0.6,0.03632393249609933,32.4429,-93.7192,"LOUISIANA CVS PHARMACY, L.L.C.",7004 YOUREE DR,SHREVEPORT,71105,DBA: CVS/PHARMACY  # 05331,
BE5276375,CHAIN PHARMACY,LIVINGSTON,LA,5.5,0.34334605780888816,30.4764,-90.9543,"LOUISIANA CVS PHARMACY, L.L.C.",640 S RANGE AVENUE,DENHAM SPRINGS,70726,DBA: CVS/PHARMACY  # 05334,
BE5276399,CHAIN PHARMACY,JEFFERSON,LA,0.2,0.010315856347317603,30.0027,-90.1358,"LOUISIANA CVS PHARMACY, L.L.C.",1107 VETERANS MEMORIAL BLVD,METAIRIE,70005,DBA: CVS/PHARMACY  # 05337,
BE5276402,CHAIN PHARMACY,TERREBONNE,LA,4.7,0.2935711468857715,29.6067,-90.742,"LOUISIANA CVS PHARMACY, L.L.C.",7015 PARK AVE,HOUMA,70364,DBA: CVS/PHARMACY  # 05338,
BE5276414,CHAIN PHARMACY,EAST BATON ROUGE,LA,0.1,0.008555494645456659,30.4098,-91.0153,"LOUISIANA CVS PHARMACY, L.L.C.",15255 GEORGE ONEAL RD #A,BATON ROUGE,70817,DBA: CVS/PHARMACY  # 05343,
BE5276426,CHAIN PHARMACY,OUACHITA,LA,1.2,0.07205023213732777,32.5516,-92.0778,"LOUISIANA CVS PHARMACY, L.L.C.",2901 STERLINGTON RD,MONROE,71203,DBA: CVS/PHARMACY  # 05344,
BE5276438,CHAIN PHARMACY,WEBSTER,LA,23.8,1.4901112594100965,32.621,-93.2693,"LOUISIANA CVS PHARMACY, L.L.C.",606 HOMER RD.,MINDEN,71055,DBA: CVS/PHARMACY  # 05345,
BE5276440,CHAIN PHARMACY,CADDO,LA,0.7,0.04665352868757277,32.4429,-93.8615,"LOUISIANA CVS PHARMACY, L.L.C.",6935 PINES RD,SHREVEPORT,71129,DBA: CVS/PHARMACY  # 05360,
BE5276452,CHAIN PHARMACY,BOSSIER,LA,5,0.3104074332638309,32.4604,-93.6634,"LOUISIANA CVS PHARMACY, L.L.C.",4890 BARKSDALE BLVD.,BOSSIER CITY,71112,DBA: CVS/PHARMACY  # 05396,
BE5286592,CHAIN PHARMACY,SAINT TAMMANY,LA,0.9,0.05874635938915714,30.4779,-90.1064,"LOUISIANA CVS PHARMACY, L.L.C.",627 W 21ST AVE,COVINGTON,70433,DBA: CVS/PHARMACY  # 05614,
BE5286605,CHAIN PHARMACY,EAST BATON ROUGE,LA,0.2,0.012363817116733643,30.4832,-91.0892,"LOUISIANA CVS PHARMACY, L.L.C.",9006 GREENWELL SPRINGS RD,BATON ROUGE,70814,DBA: CVS/PHARMACY  # 05318,
BE5286617,CHAIN PHARMACY,JEFFERSON,LA,0.2,0.009640126933357203,30.0138,-90.1581,"LOUISIANA CVS PHARMACY, L.L.C.",3535 SEVERN AVE,METAIRIE,70002,DBA: CVS/PHARMACY  # 05342,
BE5286629,CHAIN PHARMACY,SAINT CHARLES,LA,25.8,1.6151405682584985,29.9872,-90.364,"LOUISIANA CVS PHARMACY, L.L.C.",12589 AIRLINE HWY,DESTREHAN,70047,DBA: CVS/PHARMACY  # 05442,
BE5286631,CHAIN PHARMACY,WASHINGTON,LA,11.7,0.7351440941162913,30.8465,-90.1526,"LOUISIANA CVS PHARMACY, L.L.C.",1116 WASHINGTON ST,FRANKLINTON,70438,DBA: CVS/PHARMACY  # 05451,
BE5286643,CHAIN PHARMACY,SAINT TAMMANY,LA,0.9,0.05923672424494688,30.2861,-89.7357,"LOUISIANA CVS PHARMACY, L.L.C.",2103 GAUSE BLVD E,SLIDELL,70461,DBA: CVS/PHARMACY  # 05473,
BE5286655,CHAIN PHARMACY,EAST BATON ROUGE,LA,0.2,0.01375212676725617,30.4116,-91.0509,"LOUISIANA CVS PHARMACY, L.L.C.",11705 COURSEY BLVD.,BATON ROUGE,70816,DBA: CVS/PHARMACY  # 05510,
BE5286667,CHAIN PHARMACY,SAINT TAMMANY,LA,0.7,0.04556972096391931,30.4993,-90.1056,"LOUISIANA CVS PHARMACY, L.L.C.",2101 COLLINS BLVD.,COVINGTON,70433,DBA: CVS/PHARMACY  # 05469,
BE5289839,CHAIN PHARMACY,EAST BATON ROUGE,LA,0.2,0.014291450958366767,30.5426,-91.0295,"LOUISIANA CVS PHARMACY, L.L.C.",14360 WAX ROAD,BATON ROUGE,70818,DBA: CVS/PHARMACY  # 05374,
BE5289853,CHAIN PHARMACY,JEFFERSON,LA,0.2,0.009518208643904645,30.0166,-90.198,"LOUISIANA CVS PHARMACY, L.L.C.",4950 W ESPLANADE AVE,METAIRIE,70006,DBA: CVS/PHARMACY  # 05383,
BE5289865,CHAIN PHARMACY,SAINT TAMMANY,LA,1.1,0.07046412652115121,30.4723,-90.0866,"LOUISIANA CVS PHARMACY, L.L.C.",2915 HWY 190,MANDEVILLE,70471,DBA: CVS/PHARMACY  # 05435,
BE5312727,CHAIN PHARMACY,ORLEANS,LA,0.2,0.01149917822768949,29.9239,-90.0209,"LOUISIANA CVS PHARMACY, L.L.C.",3621 GENERAL DEGAULLE DR.,NEW ORLEANS,70131,DBA: CVS/PHARMACY  # 05387,
BE5312741,CHAIN PHARMACY,JEFFERSON,LA,0.2,0.010439985103547524,29.9759,-90.1752,"LOUISIANA CVS PHARMACY, L.L.C.",4301 AIRLINE DRIVE,METAIRIE,70001,DBA: CVS/PHARMACY  # 05441,
BE5312753,CHAIN PHARMACY,CALCASIEU,LA,0.8,0.052072178334590616,30.3022,-93.2012,"LOUISIANA CVS PHARMACY, L.L.C.",366 SAM HOUSTON JONES PKWY,LAKE CHARLES,70611,DBA: CVS/PHARMACY  # 05455,
BE5312765,CHAIN PHARMACY,ORLEANS,LA,0.6,0.03820568801507114,29.925,-90.1081,"LOUISIANA CVS PHARMACY, L.L.C.",4901 PRYTANIA ST,NEW ORLEANS,70115,DBA: CVS/PHARMACY  # 05503,
BE5312777,CHAIN PHARMACY,LAFOURCHE,LA,9.9,0.6226510486170449,29.4713,-90.3154,"LOUISIANA CVS PHARMACY, L.L.C.",16804 W. MAIN ST,CUT OFF,70345,DBA: CVS/PHARMACY  # 05432,
BE5312791,CHAIN PHARMACY,SAINT CHARLES,LA,11.7,0.7307801933539657,29.9191,-90.3741,"LOUISIANA CVS PHARMACY, L.L.C.",1313 PAUL MAILLARD RD/PO BOX 50,LULING,70070,DBA: CVS/PHARMACY  # 05528,
BE5312804,CHAIN PHARMACY,JEFFERSON,LA,0.2,0.01025268730746506,29.9107,-90.2018,"LOUISIANA CVS PHARMACY, L.L.C.",2850 HIGHWAY 90 WEST,AVONDALE,70094,DBA: CVS/PHARMACY  # 05543,
BE5312816,CHAIN PHARMACY,LAFAYETTE,LA,0.7,0.04598623341098006,30.1597,-91.9905,"LOUISIANA CVS PHARMACY, L.L.C.",3604 PINHOOK RD.,BROUSSARD,70518,DBA: CVS/PHARMACY  # 05560,
BE5312830,CHAIN PHARMACY,VERMILION,LA,3.4,0.21065214506567706,29.9811,-92.1236,"LOUISIANA CVS PHARMACY, L.L.C.",1100 VETERANS MEMORIAL DR,ABBEVILLE,70510,DBA: CVS/PHARMACY  # 05275,
BE5312842,CHAIN PHARMACY,ASCENSION,LA,2.5,0.15932458262071955,30.1018,-90.9944,"LOUISIANA CVS PHARMACY, L.L.C.",20 WEST TENTH ST.,DONALDSONVILLE,70346,DBA: CVS/PHARMACY  # 05278,
BE5312854,CHAIN PHARMACY,ST JOHN THE BAPTIST,LA,34.7,2.172266362424696,30.0732,-90.4957,"LOUISIANA CVS PHARMACY, L.L.C.",1500 W AIRLINE HWY,LA PLACE,70068,DBA: CVS/PHARMACY  # 05288,
BE5312866,CHAIN PHARMACY,IBERIA,LA,2.9,0.18324735996912547,29.9865,-91.8264,"LOUISIANA CVS PHARMACY, L.L.C.",820-G E ADMIRAL DOYLE DR,NEW IBERIA,70560,DBA: CVS/PHARMACY  # 05290,
BE5312880,CHAIN PHARMACY,IBERVILLE,LA,24.7,1.547083957853467,30.2813,-91.2262,"LOUISIANA CVS PHARMACY, L.L.C.",24600 CHURCH ST.,PLAQUEMINE,70764,DBA: CVS/PHARMACY  # 05293,
BE5312892,CHAIN PHARMACY,ACADIA,LA,2.8,0.1750777707578138,30.2503,-92.2714,"LOUISIANA CVS PHARMACY, L.L.C.",1409 THE BOULEVARD,RAYNE,70578,DBA: CVS/PHARMACY  # 05295,
BE5312905,CHAIN PHARMACY,LAFOURCHE,LA,4.7,0.29173717864717913,29.8008,-90.8169,"LOUISIANA CVS PHARMACY, L.L.C.",201 N. CANAL BLVD.,THIBODAUX,70301,DBA: CVS/PHARMACY  # 05297,
BE5312929,CHAIN PHARMACY,LAFOURCHE,LA,3.7,0.23486036520748324,29.704,-90.5662,"LOUISIANA CVS PHARMACY, L.L.C.",4572 HWY 1,RACELAND,70394,DBA: CVS/PHARMACY  # 05304,
BE5312931,CHAIN PHARMACY,RAPIDES,LA,0.6,0.036711331468919056,31.3342,-92.4273,"CVS EGL MILITARY PINEVILLE LA, INC.",CVS/PHARMACY #05309,PINEVILLE,71360,,1634 MILITARY HWY
BE5312943,CHAIN PHARMACY,JEFFERSON,LA,0.1,0.007692187964266533,29.9972,-90.2405,"LOUISIANA CVS PHARMACY, L.L.C.","2242 WILLIAMS BLVD.,",KENNER,70062,DBA: CVS/PHARMACY  # 05333,
BE5312979,CHAIN PHARMACY,JEFFERSON,LA,0.2,0.009716832398093718,29.9575,-90.2171,"LOUISIANA CVS PHARMACY, L.L.C.",9643-B JEFFERSON HWY,RIVER RIDGE,70123,DBA: CVS/PHARMACY  # 05340,
BE5312981,CHAIN PHARMACY,JEFFERSON,LA,0.3,0.02021454648223794,30.0218,-90.2565,"LOUISIANA CVS PHARMACY, L.L.C.",820 W. ESPLANADE AVE.,KENNER,70065,DBA: CVS/PHARMACY  # 05349,
BE5321928,CHAIN PHARMACY,OUACHITA,LA,1.7,0.1045336399207681,32.5168,-92.1608,"LOUISIANA CVS PHARMACY, L.L.C.",3423 CYPRESS ST,WEST MONROE,71291,DBA: CVS/PHARMACY  # 05521,
BE5322855,CHAIN PHARMACY,JEFFERSON,LA,0.1,0.006918296049535267,29.8758,-90.0492,"LOUISIANA CVS PHARMACY, L.L.C.",1600 LAPALCO BLVD.,HARVEY,70058,DBA: CVS/PHARMACY  # 05599,
BE5322867,CHAIN PHARMACY,LAFAYETTE,LA,0.7,0.042357681144607015,30.2318,-92.0865,"LOUISIANA CVS PHARMACY, L.L.C.",111 WESTGATE RD.,LAFAYETTE,70506,DBA: CVS/PHARMACY  # 05554,
BE5347922,CHAIN PHARMACY,ASCENSION,LA,5.3,0.33350872351677835,30.2469,-90.9201,"LOUISIANA CVS PHARMACY, L.L.C.",1624 N. BURNSIDE,GONZALES,70737,DBA: CVS/PHARMACY  # 05354,
BE5347946,CHAIN PHARMACY,RAPIDES,LA,1.1,0.06909629944930087,31.3057,-92.4546,"LOUISIANA CVS PHARMACY, L.L.C.",721 BOLTON AVE,ALEXANDRIA,71301,DBA: CVS/PHARMACY  # 05276,
BE5347960,CHAIN PHARMACY,VERMILION,LA,4.1,0.2571126257001267,29.9979,-92.2862,"LOUISIANA CVS PHARMACY, L.L.C.",100 S. CUSHING AVE.,KAPLAN,70548,DBA: CVS/PHARMACY  # 05282,
BE5347972,CHAIN PHARMACY,LAFAYETTE,LA,0.6,0.0355101384634387,30.1937,-92.0597,"LOUISIANA CVS PHARMACY, L.L.C.",4406 JOHNSTON ST,LAFAYETTE,70503,DBA: CVS/PHARMACY  # 05283,
BE5347984,CHAIN PHARMACY,SAINT MARY,LA,6.9,0.43030934476199145,29.697,-91.1958,"LOUISIANA CVS PHARMACY, L.L.C.",6502 HIGHWAY 182,MORGAN CITY,70380,DBA: CVS/PHARMACY  # 05289,
BE5348001,CHAIN PHARMACY,SAINT LANDRY,LA,2.7,0.16683220547185587,30.5323,-92.071,"LOUISIANA CVS PHARMACY, L.L.C.",1013 EAST LANDRY STREET,OPELOUSAS,70570,DBA: CVS/PHARMACY  # 05292,
BE5348013,CHAIN PHARMACY,SAINT MARTIN,LA,5.1,0.316929591543467,30.1087,-91.8377,"LOUISIANA CVS PHARMACY, L.L.C.",1730 S MAIN ST,SAINT MARTINVILLE,70582,DBA: CVS/PHARMACY  # 05296,
BE5348025,CHAIN PHARMACY,IBERIA,LA,4.9,0.30542818635284363,30.001,-91.8008,"LOUISIANA CVS PHARMACY, L.L.C.",185 N. LEWIS ST..,NEW IBERIA,70563,DBA: CVS/PHARMACY  # 05299,
BE5348049,CHAIN PHARMACY,LAFAYETTE,LA,0.9,0.05453965492217634,30.168,-92.0363,"LOUISIANA CVS PHARMACY, L.L.C.",1920 KALISTE SALOOM,LAFAYETTE,70508,DBA: CVS/PHARMACY  # 05443,
BE5348087,CHAIN PHARMACY,LAFAYETTE,LA,0.8,0.04701440348023035,30.2725,-92.0075,"LOUISIANA CVS PHARMACY, L.L.C.",3754 MOSS ST,LAFAYETTE,70507,DBA: CVS/PHARMACY  # 05511,
BE5348102,CHAIN PHARMACY,RAPIDES,LA,1.2,0.07323283437455662,31.3334,-92.3984,"LOUISIANA CVS PHARMACY, L.L.C.",100 EDGEWOOD DR.,PINEVILLE,71360,DBA: CVS/PHARMACY  # 05544,
BE5348164,CHAIN PHARMACY,RAPIDES,LA,1.2,0.07597693358612631,31.2783,-92.4796,"LOUISIANA CVS PHARMACY, L.L.C.",4443 JACKSON ST,ALEXANDRIA,71303,DBA: CVS/PHARMACY  # 05607,
BE5348190,CHAIN PHARMACY,CALCASIEU,LA,0.6,0.03846183009727762,30.2125,-93.359,"LOUISIANA CVS PHARMACY, L.L.C.",1508 S. BEGLIS PKWY.,SULPHUR,70663,DBA: CVS/PHARMACY  # 05612,
BE5710757,CHAIN PHARMACY,EAST BATON ROUGE,LA,0.3,0.01747666362578939,30.4704,-91.1627,"LOUISIANA CVS PHARMACY, L.L.C.",2520 PLANK RD,BATON ROUGE,70805,DBA: CVS/PHARMACY  # 05615,
BE5726902,CHAIN PHARMACY,LIVINGSTON,LA,11.7,0.7346763108127699,30.4872,-90.8624,"LOUISIANA CVS PHARMACY, L.L.C.",29881 WALKER RD. SOUTH/ PO BOX 1448,WALKER,70785,DBA: CVS/PHARMACY  # 05617,
BE5808677,RETAIL PHARMACY,JEFFERSON,LA,0,9.178587680536619e-5,30.0062,-90.1543,EGAN PHARMACY,3121 21ST STREET,METAIRIE,70002,,
BE7674941,RETAIL PHARMACY,IBERVILLE,LA,13.7,0.859497007011251,30.2576,-91.0953,ELLIOTT PHARMACY #2,6150 HW 74,ST GABRIEL,70776,,PO BOX 74
BE7675006,RETAIL PHARMACY,IBERVILLE,LA,23.1,1.445277095138546,30.4925,-91.5185,ELLIOTT PHARMACY,P O BOX 116,MARINGOUIN,70757,,77395 LANDRY STREET
BE8171376,RETAIL PHARMACY,CADDO,LA,2.2,0.13730690997717948,32.4544,-93.7079,EMPORIUM DRUG MART OF,DBA DRUG EMPORIUM 210,SHREVEPORT,71105,SHREVEPORT,5819 EAST KINGS HWY
BE8171388,RETAIL PHARMACY,LAFAYETTE,LA,1.1,0.06858164449291987,30.2107,-92.0462,EMPORIUM DRUG MART OF,LP DBA DRUG EMPORIUM,LAFAYETTE,70506,SHREVEPORT,505 BERTRAND
BE8457625,CHAIN PHARMACY,WINN,LA,23.2,1.4523981606212348,31.927,-92.6387,"LOUISIANA CVS PHARMACY, L.L.C.",100 W MAIN STREET,WINNFIELD,71483,CVS/PHARMACY # 05620,
BE8694083,CHAIN PHARMACY,WASHINGTON,LA,8,0.49797570960032217,30.7876,-89.8653,"CVS EGL BOGALUSA LA, INC.",CVS/PHARMACY #07901,BOGALUSA,70427,,133 CUMBERLAND STREET
BE9086085,RETAIL PHARMACY,JEFFERSON,LA,9.6,0.6009552505308798,29.9608,-90.2206,ELITE PHARMACY INC,10017 JEFFERSON HWY,RIVER RIDGE,70123,,SUITE 101
BF0636451,RETAIL PHARMACY,JEFFERSON,LA,1.4,0.09081037911191006,29.9051,-90.0925,FOLSE PHARMACY,4000 FOURTH ST,MARRERO,70072,,
BF2062557,RETAIL PHARMACY,JEFFERSON,LA,0.2,0.009999520195657443,29.8987,-90.1435,S-MART ENTERPRISES INC,905 WESTBANK EXPRESSWAY,WESTWEGO,70094,DBA  FASULLO DRUGS,
BF3631389,RETAIL PHARMACY,WEBSTER,LA,36.4,2.2775543787231527,32.9915,-93.4619,FRED'S PHARMACY,1190 S ARKANSAS,SPRINGHILL,71075,STORE 2891,
BF3743451,RETAIL PHARMACY,OUACHITA,LA,1,0.061486207561172054,32.5269,-92.1485,FRED'S PHARMACY #3256,2615 N 7TH STREET,WEST MONROE,71291,,WESTGATE S/C
BF3770446,RETAIL PHARMACY,SABINE,LA,53.3,3.3378356363974735,31.5653,-93.4867,"FRED'S PHARMACY, #2241",200 ELIZABETH ST,MANY,71449,,WRIGHT SHOPPING CENTER
BF3896719,RETAIL PHARMACY,CLAIBORNE,LA,77.4,4.845385132327054,32.9341,-93.1099,FRED'S PHARMACY #1761,9720 HWY 79,HAYNESVILLE,71038,,
BF4170243,RETAIL PHARMACY,OUACHITA,LA,1.2,0.07545278163138111,32.5251,-92.1153,FRED'S PHARMACY #2356,1701 NORTH 18TH STREET,MONROE,71201,,
BF4272364,RETAIL PHARMACY,OUACHITA,LA,1.7,0.1045102796805081,32.5445,-92.0141,FRED'S PHARMACY #2336,522 LINCOLN ROAD,MONROE,71203,,
BF5254684,RETAIL PHARMACY,BIENVILLE,LA,189,11.836702712870723,32.5581,-92.9131,FRED'S PHARMACY,1311 HAZEL STREET,ARCADIA,71001,,
BF5680029,RETAIL PHARMACY,MOREHOUSE,LA,64.4,4.031398072768653,32.7799,-91.888,FRED'S PHARMACY,2017 E. MADISON ST.,BASTROP,71220,,
BF5808689,RETAIL PHARMACY,BOSSIER,LA,8.6,0.5370211921028526,32.5571,-93.6117,FRED'S PHARMACY #1826,1075 HWY 80 EAST,HAUGHTON,71037,,
BF5811179,RETAIL PHARMACY,CALDWELL,LA,1000.4,62.66440008399028,32.0718,-92.0942,FRED'S PHARMACY,8155 US HWY 165,COLUMBIA,71418,,
BF5841817,RETAIL PHARMACY,RAPIDES,LA,5.1,0.32206583586333537,31.3859,-92.4341,FRED'S PHARMACY #3006,4828 SHREVEPORT HWY,PINEVILLE,71360,,
BF6015463,RETAIL PHARMACY,WEST FELICIANA,LA,420.7,26.351443604707857,30.788,-91.3785,FRED'S PHARMACY,7139 U.S. HIGHWAY 61,ST FRANCISVILLE,70775,,P.O. BOX 2668
BF6048234,RETAIL PHARMACY,ASCENSION,LA,10.5,0.6572200523450067,30.2124,-90.9221,FRED'S PHARMACY #1711,228 WEST HIGHWAY 30,GONZALES,70737,,
BF6128424,RETAIL PHARMACY,ST JOHN THE BAPTIST,LA,39.1,2.4499059143218256,30.0726,-90.5012,FRED'S PHARMACY #2171,2021 WEST AIRLINE HWY,LA PLACE,70068,,
BF7064378,RETAIL PHARMACY,WINN,LA,153.5,9.612078891232423,31.9351,-92.6554,FRED'S PHARMACY,2001 WEST COURT STREET,WINNFIELD,71483,,
BF7084192,RETAIL PHARMACY,CADDO,LA,0.1,0.0036657004946393256,32.4783,-93.7217,FAMILY CLINIC PHARMACY,3331 YOUREE DRIVE STE B,SHREVEPORT,71105,,
BF7123449,RETAIL PHARMACY,SAINT LANDRY,LA,7.2,0.450538658240757,30.4966,-92.4387,FRED'S PHARMACY #1526,2200 WEST LAUREL AVE.,EUNICE,70535,,
BF7375264,RETAIL PHARMACY,LINCOLN,LA,5.8,0.3632415738024493,32.5074,-92.718,FRED'S PHARMACY #1744,7616 HWY 80,RUSTON,71270,,
BF7408140,RETAIL PHARMACY,ALLEN,LA,68.9,4.31634266726146,30.481,-92.8505,FRED'S PHARMACY # 2124,715 FIRST AVENUE,KINDER,70648,,
BF7786847,RETAIL PHARMACY,CONCORDIA,LA,143.6,8.994814464568748,31.6514,-91.553,FRED'S PHARMACY # 1936,2094 EE WALLACE BLVD N,FERRIDAY,71334,,
BF8025567,RETAIL PHARMACY,OUACHITA,LA,1.8,0.11434410331837301,32.4877,-92.1743,FRED'S PHARMACY #3271,207 WASHINGTON ST,WEST MONROE,71292,,
BF8025579,RETAIL PHARMACY,TENSAS,LA,352.4,22.07256088098998,31.9213,-91.2382,FRED'S XPRESS #3861,705 PLANK ROAD,ST JOSEPH,71366,,PO BOX 5
BF8127929,RETAIL PHARMACY,WASHINGTON,LA,14.5,0.9086163397937542,30.8436,-90.1579,FREDS PHARMACY #1666,708 WASHINGTON STREET,FRANKLINTON,70438,,
BF8348422,RETAIL PHARMACY,OUACHITA,LA,0.4,0.023498712620648343,32.5459,-92.0762,FRED'S PHARMACY #2381,2350 STERLINGTON ROAD,MONROE,71201,,
BF8399683,RETAIL PHARMACY,TANGIPAHOA,LA,1.6,0.10222046233004405,30.7266,-90.5203,FRED'S PHARMACY #1064,757 WEST OAK STREET,AMITE,70422,,
BF8624238,RETAIL PHARMACY,SAINT TAMMANY,LA,0,0.0013139122222621121,30.3083,-89.7457,"F AND M SPECIALTY PHARMACY, IN","118 VILLAGE STREET, SUITE D",SLIDELL,70458,,
BF8641258,RETAIL PHARMACY,JEFFERSON DAVIS,LA,18.9,1.1833613496238005,30.2387,-92.661,FAMILY DRUG STORE OF JENNINGS,1710 JOHNSON ST,JENNINGS,70546,,
BF8935744,RETAIL PHARMACY,WASHINGTON,LA,15.8,0.9877538030719892,30.8339,-90.1512,FORSHAGS DRUGSTORE,P O BOX 771,FRANKLINTON,70438,,1919 MAIN ST
BF9018753,RETAIL PHARMACY,BOSSIER,LA,0,7.489154504766418e-4,32.8395,-93.7483,FACILITY PHARMACY,2985 OLD PLAIN DEALING ROAD,PLAIN DEALING,71064,,
BF9047134,RETAIL PHARMACY,WEBSTER,LA,47.1,2.9530007842271786,32.6237,-93.2521,FRED'S PHARMACY # 2284,1208 HOMER ROAD,MINDEN,71055,,
