BUYER_DEA_NO,BUYER_STATE,BUYER_COUNTY,lat,lon,total_dosage_unit,total_records,countyfips,average_population,per_person,linear_per_person,BUYER_BUS_ACT,BUYER_NAME,BUYER_ADDRESS1,BUYER_CITY,BUYER_ZIP,BUYER_ADDL_CO_INFO,BUYER_ADDRESS2
AB1564562,LA,JEFFERSON,33.6114,-117.9262,1799950,2803,22051,432413.71428571426,0.6,1.8655264469521367,RETAIL PHARMACY,BBC INC,DBA C & G PHARMACY,RIVER RIDGE,70123,,9311 JEFFERSON HWY
BM5174254,LA,ACADIA,30.3287,-92.4918,646000,1633,22001,60885,1.5,4.755293191920564,RETAIL PHARMACY,MILLER'S FAMILY PHARMACY,"119 S 5TH, SUITE B",IOTA,70543,,PO BOX 429
BB2469751,LA,ALLEN,30.622,-92.7735,894510,2255,22003,25771,5,15.556632518737207,RETAIL PHARMACY,PHIL'S PHARMACY,805 WEST 7TH AVENUE,OBERLIN,70655,,PO BOX 189
FF1782665,LA,ALLEN,30.7997,-92.6739,659920,2376,22003,25771,3.7,11.476795806360116,RETAIL PHARMACY,FRED'S PHARMACY #2499,739 HWY 165,OAKDALE,71463,,
AT3397494,LA,ALLEN,30.8022,-92.6713,635700,1878,22003,25771,3.5,11.055577318045296,RETAIL PHARMACY,THRIFT CITY FAMILY PHARMACY,201 HWY 165 SOUTH,OAKDALE,71463,,
BB6547876,LA,ALLEN,30.622,-92.7735,165600,287,22003,25771,0.9,2.8799038516210143,RETAIL PHARMACY,BUCK'S PHARMACY,MDB-DRUGS,OBERLIN,70655,,805 W 7TH AVENUE
BW5506083,LA,ALLEN,30.7933,-92.6779,1708630,8067,22003,25771,9.5,29.715278088797493,CHAIN PHARMACY,WAL-MART PHARMACY 10-1107,1900 HWY 165 SOUTH,OAKDALE,71463,,
BW5546265,LA,BEAUREGARD,30.8661,-93.2882,1473900,6888,22011,34977.71428571428,6,18.88594700908789,CHAIN PHARMACY,WAL-MART PHARMACY 10-0505,1125 N PINE,DE RIDDER,70634,,
FW0483913,LA,BEAUREGARD,30.8608,-93.2872,1031200,2544,22011,34977.71428571428,4.2,13.213340572875426,CHAIN PHARMACY,"WALGREEN LOUISIANA CO., INC.",916 N. PINE ST.,DERIDDER,70634,DBA:  WALGREENS #10537,
AL3414466,LA,BEAUREGARD,30.8546,-93.2887,932400,2862,22011,34977.71428571428,3.8,11.947351153634875,RETAIL PHARMACY,IDEAL DRUG STORE INC,LE RAY G E,DERIDDER,70634,,610 N PINE
FI2989640,LA,BEAUREGARD,30.8546,-93.2887,215600,692,22011,34977.71428571428,0.9,2.7625210350961464,RETAIL PHARMACY,"IDEAL HEALTH MART PHARMACY, INC",610 NORTH PINE STREET,DERIDDER,70634,,
BP0367373,LA,CADDO,32.5066,-93.7628,93000,76,22017,252980.2857142857,0.1,0.1646597820437794,RETAIL PHARMACY,POWELL MEDICAL CTR PHARMACY,515 PIERRE AVE,SHREVEPORT,71101,,
AM5781718,LA,CADDO,32.4931,-93.7458,4021530,7803,22017,252980.2857142857,2.3,7.12463915560352,RETAIL PHARMACY,MEDIC PHARMACY #11,1849 LINE AVE,SHREVEPORT,71101,,
BS9040748,LA,CADDO,32.4997,-93.7457,2538760,3508,22017,252980.2857142857,1.4,4.497689987407483,RETAIL PHARMACY,QVL PHARMACY #201,1303 LINE AVENUE,SHREVEPORT,71101,,SUITE 300
BM5312208,LA,CADDO,32.4929,-93.7458,8300,18,22017,252980.2857142857,0,0.014601044312233517,RETAIL PHARMACY,MEDIC'S COMPOUNDING LAB,1847 LINE AVENUE,SHREVEPORT,71101,,
AM3407031,LA,CADDO,32.4815,-93.7632,1586882,1746,22017,252980.2857142857,0.9,2.811295522774325,RETAIL PHARMACY,MITCHELL DRUG STORE #1,3102 LINWOOD AVE,SHREVEPORT,71103,,
FM2828830,LA,CADDO,32.4815,-93.7632,268450,528,22017,252980.2857142857,0.2,0.4754957387734102,RETAIL PHARMACY,RITE CARE PHARMACY,3102 LINWOOD AVENUE,SHREVEPORT,71103,,
BW6181818,LA,CADDO,32.401,-93.8042,4689800,7809,22017,252980.2857142857,2.6,8.308579564858066,CHAIN PHARMACY,"WALGREEN LOUISIANA CO., INC.",9209 MANSFIELD RD.,SHREVEPORT,71118,DBA: WALGREENS # 04998,
BS5880807,LA,CADDO,32.4014,-93.8003,1662260,1549,22017,252980.2857142857,0.9,2.94483894110642,RETAIL PHARMACY,STERLING HLTH CARE SERV,2535 BERT KOUNS,SHREVEPORT,71118,OMNICARE OF SHREVEPORT,SUITE 211
AK3417006,LA,EAST BATON ROUGE,30.5029,-91.1514,565750,1856,22033,434462.71428571426,0.2,0.5835250088271374,CHAIN PHARMACY,K & B LOUISIANA CORP,PLANK ROAD VILLAGE SHOPPING CE,BATON ROUGE,70805,RITE AID #7314,5840 PLANK ROAD
BW9588128,LA,EAST BATON ROUGE,30.5019,-91.1301,2726060,4327,22033,434462.71428571426,0.9,2.812104462262392,CHAIN PHARMACY,"WALGREEN LOUISIANA CO., INC.",5955 AIRLINE HWY,BATON ROUGE,70805,DBA: WALGREENS # 09860,
BW8639366,LA,EAST BATON ROUGE,30.4842,-91.0903,1627900,3291,22033,434462.71428571426,0.5,1.679240747062046,CHAIN PHARMACY,"WALGREEN LOUISIANA CO., INC.",3671 JOOR ROAD,BATON ROUGE,70814,DBA: WALGREENS # 07836,
BA5925283,LA,EAST BATON ROUGE,30.4787,-91.1097,8100,20,22033,434462.71428571426,0,0.008252324717833768,RETAIL PHARMACY,ASSOCIATED VETERNIARY SERVICE,3205 LANIER DRIVE,BATON ROUGE,70814,,
BW5456290,LA,EAST BATON ROUGE,30.3688,-91.0749,1730500,4345,22033,434462.71428571426,0.6,1.7850830807652909,CHAIN PHARMACY,"WALGREEN LOUISIANA CO., INC.",12881 PERKINS RD.,BATON ROUGE,70810,DBA: WALGREENS # 03610,
FL0161834,LA,EAST BATON ROUGE,30.3792,-91.0968,1158300,2002,22033,434462.71428571426,0.4,1.1948005920226323,CHAIN PHARMACY,"LOUISIANA CVS PHARMACY, L.L.C.","7777 BLUEBONNET BLVD,, SUITE 100",BATON ROUGE,70810,DBA: CVS/PHARMACY  # 01116,
BT9515985,LA,EAST BATON ROUGE,30.3655,-91.0775,6600,65,22033,434462.71428571426,0,0.006704922178312645,RETAIL PHARMACY,TRIEL - REGIONS PHARMACY,9270 SIEGEN LANE,BATON ROUGE,70810,,SUITE 803
BN9131587,LA,EAST BATON ROUGE,30.3803,-91.0943,61030,238,22033,434462.71428571426,0,0.06285500232906921,RETAIL PHARMACY,NATIONAL PHARMACY ACQUISITION,10105 PARK ROWE CIRCLE,BATON ROUGE,70810,,SUITE A
BW8066373,LA,IBERIA,30.0002,-91.7996,2741780,5115,22045,73613.85714285714,5.3,16.693019120300374,CHAIN PHARMACY,"WALGREEN LOUISIANA CO., INC.",1102 PARKVIEW DRIVE,NEW IBERIA,70563,DBA: WALGREENS # 07166,
BL4774522,LA,IBERIA,30.0075,-91.7927,2359700,4441,22045,73613.85714285714,4.6,14.366753574672133,RETAIL PHARMACY,L & M PHARMACY,1033 ANDRE STREET,NEW IBERIA,70563,,
AF3421699,LA,IBERIA,30.0042,-91.7974,1063890,3414,22045,73613.85714285714,2.1,6.477311162924513,RETAIL PHARMACY,FAMILY DRUGSTORE NEW IBERIA,DBA DELAUNE'S PHAR & HOME MED,NEW IBERIA,70563,,308 N LEWIS STREET
FN2431182,LA,IBERIA,30.0042,-91.7974,352160,1343,22045,73613.85714285714,0.7,2.143996211108171,RETAIL PHARMACY,"NEW IBERIA RX, INC.",308 NORTH LEWIS STREET,NEW IBERIA,70563,D/B/A DELAUNE'S PHARMACY,
AB1137505,LA,IBERVILLE,30.1714,-91.1464,41700,374,22047,33405.42857142857,0.2,0.5593750604637937,RETAIL PHARMACY,BAJON'S PHARMACY INC,"32420 BOWIE ST, PO BOX 8",WHITE CASTLE,70788,,
BQ9221312,LA,JEFFERSON,30.0125,-90.1582,13560100,11198,22051,432413.71428571426,4.5,14.05480380068949,RETAIL PHARMACY,"QVL PHARMACY 224, LLC",3501 SEVERN AVE,METAIRIE,70002,,SUITE 3A
BC5286617,LA,JEFFERSON,30.0138,-90.1581,725900,1904,22051,432413.71428571426,0.2,0.7522844099218609,CHAIN PHARMACY,"LOUISIANA CVS PHARMACY, L.L.C.",3535 SEVERN AVE,METAIRIE,70002,DBA: CVS/PHARMACY  # 05342,
BE5286617,LA,JEFFERSON,30.0138,-90.1581,307100,800,22051,432413.71428571426,0.1,0.31820241643153935,CHAIN PHARMACY,"LOUISIANA CVS PHARMACY, L.L.C.",3535 SEVERN AVE,METAIRIE,70002,DBA: CVS/PHARMACY  # 05342,
BE5808677,LA,JEFFERSON,30.0062,-90.1543,3800,24,22051,432413.71428571426,0,0.0038350128364713202,RETAIL PHARMACY,EGAN PHARMACY,3121 21ST STREET,METAIRIE,70002,,
BW2191423,LA,JEFFERSON,30.0203,-90.257,2911000,6274,22051,432413.71428571426,1,3.0171186123471263,CHAIN PHARMACY,"WALGREEN LOUISIANA CO., INC.",821 W ESPLANADE,KENNER,70065,DBA: WALGREENS # 05472,
FT2703444,LA,JEFFERSON,30.0161,-90.2494,49000,265,22051,432413.71428571426,0,0.05068435883876962,CHAIN PHARMACY,TARGET STORES A DIV. OF TARGET CORP.,TARGET STORE T-2534,KENNER,70065,ATTN PHARMACY,1401 W ESPLANADE AVE STE 200
BK3628495,LA,JEFFERSON,30.0016,-90.1526,380620,2110,22051,432413.71428571426,0.1,0.3944051579821803,CHAIN PHARMACY,K-MART PHARMACY #4810,2940 VETERANS BLVD,METAIRIE,70002,,
BS3720718,LA,JEFFERSON,30.0012,-90.1514,128200,701,22051,432413.71428571426,0,0.13277436333837198,CHAIN PHARMACY,SAV-A-CENTER #60,"SUPER FRESH/SAV-A-CENTER, INC",METAIRIE,70002,,2900 VETERANS HIGHWAY
FJ2239108,LA,JEFFERSON,29.9593,-90.1719,427560,248,22051,432413.71428571426,0.1,0.44305799650757594,RETAIL PHARMACY,JACK'S DISCOUNT PHARMACY LLC,4400 JEFFERSON HIGHWAY,JEFFERSON,70121,,
AW2056097,LA,JEFFERSON,29.8967,-90.0881,6300,37,22051,432413.71428571426,0,0.006426237725978969,RETAIL PHARMACY,WESTBANK PHARMACY,3709 WESTBANK EXPRESSWAY,HARVEY,70058,,STE 1-C
FN1312189,LA,JEFFERSON,29.8967,-90.0881,40320,222,22051,432413.71428571426,0,0.04168762602239906,RETAIL PHARMACY,"NGUYEN PHARMACY, INC.",3709 WESTBANK EXPRESSWAY,HARVEY,70058,DBA WESTBANK PHARMACY,SUITE 1-C
FL2018693,LA,JEFFERSON,29.8978,-90.1384,550800,1208,22051,432413.71428571426,0.2,0.5707950186607451,CHAIN PHARMACY,"LOUISIANA CVS PHARMACY, L.L.C.",1203 WESTBANK EXPRESSWAY,WESTWEGO,70094,DBA: CVS/PHARMACY  # 04752,
BF2062557,LA,JEFFERSON,29.8987,-90.1435,396880,979,22051,432413.71428571426,0.1,0.41125848466353804,RETAIL PHARMACY,S-MART ENTERPRISES INC,905 WESTBANK EXPRESSWAY,WESTWEGO,70094,DBA  FASULLO DRUGS,
BA1411379,LA,JEFFERSON DAVIS,30.2224,-92.6578,1618900,1853,22053,31428.571428571428,7.4,23.086494287416034,RETAIL PHARMACY,ARDOIN'S CRESCENT DRUG STORE,254 NORTH MAIN STREET,JENNINGS,70546,AMOS LEE ARDOIN,PO BOX 1205
BC4730481,LA,JEFFERSON DAVIS,30.2268,-92.6577,1373100,2959,22053,31428.571428571428,6.2,19.58122171173503,RETAIL PHARMACY,CASSIDY'S PHARMACY INC,710 N MAIN ST,JENNINGS,70546,,PO BOX 957
BW5505740,LA,JEFFERSON DAVIS,30.2445,-92.6591,1033340,5411,22053,31428.571428571428,4.7,14.736016625024789,CHAIN PHARMACY,WAL-MART PHARMACY 10-0386,303 INTERSTATE DRIVE,JENNINGS,70546,,
FW0366573,LA,JEFFERSON DAVIS,30.2421,-92.6628,965400,2070,22053,31428.571428571428,4.4,13.767146735717356,CHAIN PHARMACY,"WALGREEN LOUISIANA CO., INC.",1804 ELTON RD,JENNINGS,70546,DBA: WALGREENS #10577,
BH9650587,LA,JEFFERSON DAVIS,30.2343,-92.6619,946040,2553,22053,31428.571428571428,4.3,13.491060173206437,RETAIL PHARMACY,HEALTH MART PHARMACY OF JENN,1322 ELTON RD.,JENNINGS,70546,,SUITE A
BT2574588,LA,JEFFERSON DAVIS,30.2278,-92.6632,567920,1832,22053,31428.571428571428,2.6,8.09881580251278,RETAIL PHARMACY,THE MEDICINE SHOPPE,802 NORTH LAKE ARTHUR AVE,JENNINGS,70546,,
FF0894407,LA,JEFFERSON DAVIS,30.2387,-92.661,513700,1420,22053,31428.571428571428,2.3,7.325602299447589,RETAIL PHARMACY,FAMILY DRUG STORE OF JENNINGS,1710 JOHNSON ST.,JENNINGS,70546,,
BF8641258,LA,JEFFERSON DAVIS,30.2387,-92.661,259530,779,22053,31428.571428571428,1.2,3.700967919623178,RETAIL PHARMACY,FAMILY DRUG STORE OF JENNINGS,1710 JOHNSON ST,JENNINGS,70546,,
AK8274730,LA,JEFFERSON DAVIS,30.2326,-92.6621,116000,494,22053,31428.571428571428,0.5,1.6541340189417517,CHAIN PHARMACY,K & B LOUISIANA CORP #7303,1208 ELTON RD,JENNINGS,70546,RITE AID #7303,JENNINGS VILLAGE SHOPPING CTR
BT3806378,LA,JEFFERSON DAVIS,30.2372,-92.6613,46610,163,22053,31428.571428571428,0.2,0.6645861587851013,RETAIL PHARMACY,THRIFTY WAY PHARMACY,OF JENNINGS LA,JENNINGS,70546,,"1615 JOHNSON STREET, SUITE D"
BS3824934,LA,LINCOLN,32.5449,-92.638,1236600,4131,22061,45322.142857142855,3.9,12.228682887823958,CHAIN PHARMACY,SUPER 1 PHARMACY,1500 NORTH TRENTON,RUSTON,71270,,
BW5592729,LA,LINCOLN,32.5436,-92.6242,788420,4191,22061,45322.142857142855,2.5,7.7966130592037235,CHAIN PHARMACY,WAL-MART PHARMACY 10-0023,1201 N SERVICE ROAD EAST,RUSTON,71270,,
BF9257266,LA,LINCOLN,32.5491,-92.6119,466900,3054,22061,45322.142857142855,1.5,4.617089003471704,RETAIL PHARMACY,FRED'S PHARMACY # 2799,2019 FARMERVILLE HWY.,RUSTON,71270,,
BS7836541,LA,LINCOLN,32.5439,-92.6366,365530,2240,22061,45322.142857142855,1.2,3.6146370454922465,RETAIL PHARMACY,STERLING PHARMACY,205 E REYNOLDS DRIVE,RUSTON,71270,,SUITE C
FW0606131,LA,ORLEANS,30.0277,-89.9933,1081700,3022,22071,298219.28571428574,0.5,1.6255785914331726,CHAIN PHARMACY,"WALGREEN LOUISIANA CO., INC.",5702 CROWDER BLVD,NEW ORLEANS,70127,DBA: WALGREENS #16312,
FW1141314,LA,ORLEANS,29.9996,-90.0587,869600,2433,22071,298219.28571428574,0.4,1.3068144209654473,CHAIN PHARMACY,"WALGREEN LOUISIANA CO., INC.",3216 GENTILLY BLVD,NEW ORLEANS,70122,DBA: WALGREENS #11414,
BW2831382,LA,ORLEANS,29.924,-90.087,1186500,3421,22071,298219.28571428574,0.6,1.7830820570862493,CHAIN PHARMACY,"WALGREEN LOUISIANA CO., INC.",3227 MAGAZINE ST,NEW ORLEANS,70115,DBA: WALGREENS # 02640,
FW1128493,LA,ORLEANS,30.0212,-90.1127,747600,2523,22071,298219.28571428574,0.4,1.1234611498807585,CHAIN PHARMACY,"WALGREEN LOUISIANA CO., INC.",101 ROBERT E LEE BOULEVARD,NEW ORLEANS,70124,DBA: WALGREENS #11496,
BL9175882,LA,ORLEANS,30.0233,-90.0912,52290,228,22071,298219.28571428574,0,0.07848276530784902,RETAIL PHARMACY,LAKEFRONT PHARMACY,6510 SPANISH FORT BLVD,NEW ORLEANS,70124,,
BC3575315,LA,RAPIDES,31.3202,-92.4361,299000,1089,22079,130994.71428571429,0.3,1.0229112851695679,RETAIL PHARMACY,CENLA PROFESSIONAL PHARMACY,610 MAIN STREET,PINEVILLE,71360,,
FW1802203,LA,SAINT BERNARD,29.9589,-89.9843,512800,2402,22087,29047,2.5,7.9123520070414965,CHAIN PHARMACY,WAL-MART PHARMACY 10-0909,8101 W. JUDGE PEREZ DR.,CHALMETTE,70043,,
BW5506588,LA,SAINT BERNARD,29.9589,-89.9843,2300,9,22087,29047,0,0.03538513417307272,CHAIN PHARMACY,WAL-MART PHARMACY 10-0909,8101 W. JUDGE PEREZ DR.,CHALMETTE (N),70043,,
BE3780308,LA,SAINT TAMMANY,30.3608,-89.7529,2223590,4941,22103,228431.14285714287,1.4,4.362682814702603,RETAIL PHARMACY,EVANS DRUG MART,P.O. BOX 129,PEARL RIVER,70452,,64288 HIGHWAY 41
BS9603590,LA,TERREBONNE,29.6328,-90.7606,326400,2104,22109,110670.71428571429,0.4,1.3217458003120999,CHAIN PHARMACY,SAM'S PHARMACY 10-6521,2174 MARTIN LUTHER KING BLVD,"HOUMA, LA",70360,,
BR3901180,LA,TERREBONNE,29.6351,-90.7619,98600,525,22109,110670.71428571429,0.1,0.3992050388161148,RETAIL PHARMACY,ROUSE'S DISCOUNT PHARMACY,5818 WEST MAIN ST,HOUMA,70360,,
BT3045045,LA,VERMILION,30.0255,-92.5134,1351850,1827,22113,57033.857142857145,3.4,10.62321770951816,RETAIL PHARMACY,THIBODEAUX'S PHARMACY,104 MAIN STREET,GUEYDAN,70542,,
BG4816091,LA,VERMILION,30.0254,-92.5124,319700,1272,22113,57033.857142857145,0.8,2.5122134263580773,RETAIL PHARMACY,HEALTH MART PHARMACY GUEYDAN,200 MAIN STREET,GUEYDAN,70542,,
FH2389737,LA,VERMILION,30.0254,-92.5124,149000,610,22113,57033.857142857145,0.4,1.1707917036090336,RETAIL PHARMACY,HEALTH MART PHARMACY OF GUEYDAN,200 MAIN STREET,GUEYDAN,70542,,
FM3435268,LA,VERMILION,30.0255,-92.5134,8300,25,22113,57033.857142857145,0,0.06512072299514653,RETAIL PHARMACY,MECHE'S FAMILY DRUGS,104 MAIN STREET,GUEYDAN,70542,,
BR0101624,LA,VERNON,30.9203,-93.2821,729590,1977,22115,49822.57142857143,2.1,6.563121330866151,RETAIL PHARMACY,ROSEPINE FAMILY PHARMACY,18507 CENTRAL AVE,ROSEPINE,70659,,PO BOX 408
FR1435355,LA,WASHINGTON,30.7876,-89.8653,2774600,1990,22117,46278.42857142857,8.6,26.87105144664375,RETAIL PHARMACY,"ROCKY'S MED SHOPPE, LLC",133 CUMBERLAND ST,BOGALUSA,70427,,
FW0501280,LA,WASHINGTON,30.7912,-89.8631,2001630,4170,22117,46278.42857142857,6.2,19.38507265536705,CHAIN PHARMACY,"WALGREEN LOUISIANA CO., INC.",217 SUPERIOR AVE,BOGALUSA,70427,DBA: WALGREENS #09997,
BC5276010,LA,WASHINGTON,30.7912,-89.8643,1229000,2335,22117,46278.42857142857,3.8,11.902386660433072,CHAIN PHARMACY,"LOUISIANA CVS PHARMACY, L.L.C.",329 SUPERIOR AVE.,BOGALUSA,70427,DBA: CVS/PHARMACY  # 05277,
BE5276010,LA,WASHINGTON,30.7912,-89.8643,492800,999,22117,46278.42857142857,1.5,4.772514108926666,CHAIN PHARMACY,"LOUISIANA CVS PHARMACY, L.L.C.",329 SUPERIOR AVE.,BOGALUSA,70427,DBA: CVS/PHARMACY  # 05277,
BE8694083,LA,WASHINGTON,30.7876,-89.8653,130800,375,22117,46278.42857142857,0.4,1.2666544734399507,CHAIN PHARMACY,"CVS EGL BOGALUSA LA, INC.",CVS/PHARMACY #07901,BOGALUSA,70427,,133 CUMBERLAND STREET
FW2171445,LA,WASHINGTON,30.7936,-89.865,123600,760,22117,46278.42857142857,0.4,1.1969246685352426,CHAIN PHARMACY,WAL-MART PHARMACY 10-0803,401 ONTARIO AVE,BOGALUSA,70427,,
BC8694083,LA,WASHINGTON,30.7876,-89.8653,74000,253,22117,46278.42857142857,0.2,0.7165637903028089,CHAIN PHARMACY,"CVS EGL BOGALUSA LA, INC.",CVS/PHARMACY #07901,BOGALUSA,70427,,133 CUMBERLAND STREET
AG7424322,LA,ACADIA,30.2126,-92.3729,464840,1239,22001,60885,1.1,3.4217209137466185,RETAIL PHARMACY,GREMILLION'S DRUG STORE,401 N PARKERSON,CROWLEY,70526,,
AT9042134,LA,ACADIA,30.2069,-92.3634,25100,72,22001,60885,0.1,0.18466486603072807,RETAIL PHARMACY,THRIFTY-WAY PHARMACY,520 SOUTH EASTERN AVE,CROWLEY,70526,,
BG4215530,LA,ASCENSION,30.3216,-90.9385,2588440,4506,22005,101895.85714285714,3.6,11.385239717655551,RETAIL PHARMACY,GALVEZ TOWN PHARMACY,40017 HWY 42,PRAIRIEVILLE,70769,,SUITE D
FL0660820,LA,ASCENSION,30.3198,-90.9774,1196360,1725,22005,101895.85714285714,1.7,5.262127420732422,CHAIN PHARMACY,"LOUISIANA CVS PHARMACY, L.L.C.",17122 AIRLINE HWY.,PRAIRIEVILLE,70769,DBA: CVS/PHARMACY  # 01661,
FW2883545,LA,ASCENSION,30.3217,-90.9397,221200,547,22005,101895.85714285714,0.3,0.9728522444009174,CHAIN PHARMACY,"WALGREEN LOUISIANA CO., INC.",39527 HWY 42,PRAIRIEVILLE,70769,DBA:WALGREENS #13779,
BW6282797,LA,CADDO,32.4574,-93.7224,1679330,4242,22017,252980.2857142857,0.9,2.975081003126225,CHAIN PHARMACY,"WALGREEN LOUISIANA CO., INC.",300 SOUTHFIELD RD,SHREVEPORT,71105,DBA: WALGREENS # 05163,
FL0355873,LA,CADDO,32.4029,-93.8049,1306000,1767,22017,252980.2857142857,0.7,2.313670984739944,CHAIN PHARMACY,"LOUISIANA CVS PHARMACY, L.L.C.",9194 MANSFIELD RD,SHREVEPORT,71118,DBA: CVS/PHARMACY  # 05327,
BC9343889,LA,CADDO,32.4029,-93.8049,921000,987,22017,252980.2857142857,0.5,1.631585813232917,CHAIN PHARMACY,"LOUISIANA CVS PHARMACY, L.L.C.",9194 MANSFIELD RD,SHREVEPORT,71118,DBA: CVS/PHARMACY  # 05327,
BE5276313,LA,CADDO,32.4029,-93.8049,4200,20,22017,252980.2857142857,0,0.007337280148132711,CHAIN PHARMACY,ECKERD DRUGS #0561,9194 MANSFIELD RD,SHREVEPORT,71118,,
AK7592341,LA,CALCASIEU,30.1844,-93.2215,647780,3858,22019,188386.85714285713,0.5,1.541034218379532,CHAIN PHARMACY,K MART PHARMACY,4070 RYAN ST,LAKE CHARLES,70605,,
BA3106122,LA,CALCASIEU,30.1853,-93.2201,525020,2500,22019,188386.85714285713,0.4,1.2489750553936898,CHAIN PHARMACY,ALBERTSONS LLC,4060 RYAN STREET,LAKE CHARLES,70605,ALBERTSONS PHARMACY #717,
BW3988411,LA,CALCASIEU,30.1765,-93.233,1724040,5628,22019,188386.85714285713,1.3,4.101571810063651,CHAIN PHARMACY,"WALGREEN LOUISIANA CO., INC.",4460 LAKE ST,LAKE CHARLES,70605,DBA: WALGREENS # 02997,
FL0063038,LA,CALCASIEU,30.1693,-93.25,950540,2348,22019,188386.85714285713,0.7,2.2613326232800985,CHAIN PHARMACY,"LOUISIANA CVS PHARMACY, L.L.C.",4828 NELSON RD.,LAKE CHARLES,70605,DBA: CVS/PHARMACY  # 01099,
BA7593482,LA,CALCASIEU,30.1706,-93.2654,350860,1718,22019,188386.85714285713,0.3,0.8346297977721986,CHAIN PHARMACY,ALBERTSONS LLC,2750 COUNTRY CLUB BLVD,LAKE CHARLES,70605,ALBERTSONS PHARMACY #2798,
BC8724141,LA,CALCASIEU,30.183,-93.248,292990,1119,22019,188386.85714285713,0.2,0.6969508814966149,RETAIL PHARMACY,"CARMICHAEL'S PHARMACY, IHP",1725 WEST SALE,LAKE CHARLES,70605,,
FC1110698,LA,CALCASIEU,30.183,-93.248,240620,1043,22019,188386.85714285713,0.2,0.5723570531684253,RETAIL PHARMACY,CARMICHAEL'S PHARMACY I.H.P.,1725 WEST SALE RD,LAKE CHARLES,70605,,
AM5280968,LA,CATAHOULA,31.7705,-91.8207,1355810,3914,22025,10459.57142857143,18.5,58.09633357899712,RETAIL PHARMACY,MEDI THRIFT DRUGS,P.O. BOX 205,HARRISONBURG,71340,,302 BUSHLEY STREET
AI4369054,LA,CATAHOULA,31.8472,-91.659,183360,1252,22025,10459.57142857143,2.5,7.856869474174141,RETAIL PHARMACY,ISLAND PHARMACY,P O BOX 38 HIGHWAY 15,SICILY ISLAND,71368,,
FI1757864,LA,CATAHOULA,31.8472,-91.659,182910,1079,22025,10459.57142857143,2.5,7.837586981234425,RETAIL PHARMACY,ISLAND PHARMACY,PO BOX 38,SICILY ISLAND,71368,,311 CHISUM ST.
BI8158289,LA,CATAHOULA,31.8534,-91.6608,17330,167,22025,10459.57142857143,0.2,0.7424865791050483,RETAIL PHARMACY,ISLAND INSTITUTIONAL PHARMACY,313 CHISUM STREET,SICILY ISLAND,71368,,
BF3896719,LA,CLAIBORNE,32.9341,-93.1099,533700,1961,22027,17011.428571428572,4.5,14.061050656368094,RETAIL PHARMACY,FRED'S PHARMACY #1761,9720 HWY 79,HAYNESVILLE,71038,,
FF0280103,LA,EAST BATON ROUGE,30.4523,-91.1112,173460,461,22033,434462.71428571426,0.1,0.17883798067464263,RETAIL PHARMACY,FRANKLIN  AVENUE PHARMACY,7521 FLORIDA BLVD,BATON ROUGE,70806,,
BT5572412,LA,EAST BATON ROUGE,30.4523,-91.1112,73560,208,22033,434462.71428571426,0,0.07578097154253567,RETAIL PHARMACY,FRANKLIN  AVENUE PHARMACY,7521 FLORIDA BLVD,BATON ROUGE,70806,,
BT9468302,LA,EAST BATON ROUGE,30.4408,-91.0217,1484500,3965,22033,434462.71428571426,0.5,1.5313090642838263,CHAIN PHARMACY,TARGET STORES A DIV.OF TARGET CORP.,ATTN: PHARMACY,BATON ROUGE,70816,TARGET STORE T-2089,2001 MILLERVILLE RD
AK2434140,LA,EAST BATON ROUGE,30.4518,-91.0233,1042380,2439,22033,434462.71428571426,0.3,1.07521732376844,CHAIN PHARMACY,K & B LOUISIANA CORPORATION,1029 MILLERVILLE RD,BATON ROUGE,70816,RITE AID #7325,
BM0248559,LA,EVANGELINE,30.6944,-92.2658,2817160,4864,22039,34594.142857142855,11.6,36.49826859080931,RETAIL PHARMACY,"MEDICINE CHEST PHARMACY, INC",409 EAST LINCOLN RD,VILLE PLATTE,70586,,
AL3421954,LA,EVANGELINE,30.6882,-92.2741,1401930,2519,22039,34594.142857142855,5.8,18.16292684772795,RETAIL PHARMACY,EVANGELINE DRUG STORE INC,10 W MAIN ST,VILLE PLATTE,70586,H.B. LEBAS,P.O. BOX 370
BV3696183,LA,EVANGELINE,30.6802,-92.2654,1083460,2653,22039,34594.142857142855,4.5,14.036914620090663,RETAIL PHARMACY,VILLE PLATTE CLINIC PHARMACY,505 JACK MILLER ROAD,VILLE PLATTE,70586,,P.O. BOX 636
AB9582998,LA,EVANGELINE,30.6802,-92.2759,821700,1395,22039,34594.142857142855,3.4,10.645622000043764,RETAIL PHARMACY,BLAKE'S SOUTHSIDE PHARMACY,808 SOUTH CHATAIGNIER ROAD,VILLE PLATTE,70586,,PO BOX 348
BT4308753,LA,EVANGELINE,30.6957,-92.2702,638370,1496,22039,34594.142857142855,2.6,8.270447504195664,RETAIL PHARMACY,THRIFTY WAY PHARMACY OF VILLE,1011 WEST LINCOLN ROAD,VILLE PLATTE,70586,PLATTE,PO BOX 237
BP2145313,LA,EVANGELINE,30.6944,-92.2658,44500,188,22039,34594.142857142855,0.2,0.5764264609986399,RETAIL PHARMACY,PROFESSIONAL PHARM SERV INC,OF VILLE PLATTE,VILLE PLATTE,70586,,409-A E LINCOLN RD
AG1497064,LA,FRANKLIN,32.0497,-91.6581,126430,396,22041,20624.571428571428,0.9,2.7473461286507757,RETAIL PHARMACY,GILBERT DRUGS,7584 GILBERT STREET,GILBERT,71336,,P.O. BOX 870
AA2511295,LA,IBERIA,30.0019,-91.8416,817650,1685,22045,73613.85714285714,1.6,4.978097312538473,RETAIL PHARMACY,ACKAL'S IBERIA PHARMACY,1620 HOPKINS ST,NEW IBERIA,70560,,
BC5312943,LA,JEFFERSON,29.9972,-90.2405,684000,1549,22051,432413.71428571426,0.2,0.7088554807737125,CHAIN PHARMACY,"LOUISIANA CVS PHARMACY, L.L.C.","2242 WILLIAMS BLVD.,",KENNER,70062,DBA: CVS/PHARMACY  # 05333,
BW9570347,LA,JEFFERSON,29.9946,-90.2398,531970,3114,22051,432413.71428571426,0.2,0.5512779127929733,CHAIN PHARMACY,"WINN DIXIE MONTGOMERY, LLC.",WINN DIXIE PHARMACY # 1412,KENNER,70062,,2104 WILLIAMS BLVD
BE5312943,LA,JEFFERSON,29.9972,-90.2405,247100,770,22051,432413.71428571426,0.1,0.2560130190833558,CHAIN PHARMACY,"LOUISIANA CVS PHARMACY, L.L.C.","2242 WILLIAMS BLVD.,",KENNER,70062,DBA: CVS/PHARMACY  # 05333,
BW4764987,LA,JEFFERSON,29.9946,-90.2398,3900,12,22051,432413.71428571426,0,0.003938661832051627,CHAIN PHARMACY,WINN-DIXIE PHARMACY #1412,"WINN-DIXIE LA., INC",KENNER,70062,,2104 WILLIAMS BLVD
AK8400296,LA,JEFFERSON,30.0154,-90.1823,1013710,2512,22051,432413.71428571426,0.3,1.0505965841015394,CHAIN PHARMACY,K & B LOUISIANA CORPORATION,4300 WEST ESPLANADE AVE.,METAIRIE,70006,RITE AID #7240,
FW2706363,LA,JEFFERSON,30.006,-90.187,253700,752,22051,432413.71428571426,0.1,0.2628538527916559,CHAIN PHARMACY,"WALGREEN LOUISIANA CO., INC.",4607 VETERANS MEMORIAL BLVD.,METAIRIE,70006,DBA: WALGREENS #15067,
BW9547209,LA,JEFFERSON,29.9429,-90.212,690730,4278,22051,432413.71428571426,0.2,0.7158310581762671,CHAIN PHARMACY,"WINN DIXIE MONTGOMERY, LLC.",WINN DIXIE PHARMACY # 1404,RIVER RIDGE,70123,,8601 JEFFERSON HWY
FC3204497,LA,JEFFERSON,29.9522,-90.2134,169900,834,22051,432413.71428571426,0.1,0.17599599449535955,RETAIL PHARMACY,C & G PHARMACY #3901,9311 JEFFERSON HWY,RIVER RIDGE,70123,,
BA7415208,LA,JEFFERSON,29.9445,-90.1873,10753640,8346,22051,432413.71428571426,3.6,11.145936199326433,RETAIL PHARMACY,ASPEN PHARMACY,5745 PLAUCHE CT.,HARAHAN,70123,,
BP9000338,LA,JEFFERSON,29.9454,-90.1844,3620200,860,22051,432413.71428571426,1.2,3.7521972890026567,RETAIL PHARMACY,"PHARMACY 101, LTD.",5620 JEFFERSON HIGHWAY,ELMWOOD,70123,,
BW5505978,LA,JEFFERSON,29.9501,-90.1797,1043300,4636,22051,432413.71428571426,0.3,1.0812663218937517,CHAIN PHARMACY,WAL-MART PHARMACY 10-1353,5110 JEFFERSON HWY,HARAHAN,70123,,
AK8353930,LA,JEFFERSON,29.9629,-90.1882,350430,1977,22051,432413.71428571426,0.1,0.3631135262164859,RETAIL PHARMACY,K MART PHARMACY,1400 S CLEARVIEW PARKWAY,NEW ORLEANS,70123,,
BP9641615,LA,JEFFERSON,29.9491,-90.1843,407900,1293,22051,432413.71428571426,0.1,0.42268060397648777,RETAIL PHARMACY,PHARMERICA DRUG SYSTEMS LLC,520 ELMWOOD PARK BLVD.,ELMWOOD,70123,,STE#140
BP5862190,LA,JEFFERSON,29.9491,-90.1843,7900,20,22051,432413.71428571426,0,0.008084621655263866,RETAIL PHARMACY,PHARMACEUTICAL DOSE SERVICE,520 ELMWOOD PARK BLVD.,ELMWOOD,70123,,SUITE 140
BD8724660,LA,JEFFERSON,29.9535,-90.1868,300,3,22051,432413.71428571426,0,2.072979911606119e-4,RETAIL PHARMACY,DIABETES MANAGEMENT & SUPPLIES,#10 COMMERCE CT,NEW ORLEANS,70123,,SUITE B
BC6025337,LA,JEFFERSON,29.9515,-90.1879,1290120,1602,22051,432413.71428571426,0.4,1.337092772785063,RETAIL PHARMACY,CAMPO MEDICAL PHARMACY,660 DISTRIBUTORS ROW #A & B,RIVER RIDGE,70123,DBA OMNICARE OF NEW ORLEANS,
FL2272273,LA,JEFFERSON,29.9639,-90.148,325500,910,22051,432413.71428571426,0.1,0.3372738316183156,CHAIN PHARMACY,"LOUISIANA CVS PHARMACY, L.L.C.",1801 JEFFERSON HWY.,JEFFERSON,70121,DBA: CVS/PHARMACY  #01939,
AO9803241,LA,JEFFERSON,29.9168,-90.0484,115590,414,22051,432413.71428571426,0,0.11970422499569537,RETAIL PHARMACY,OAKVIEW PHARMACY,1106 STUMPF BLVD,GRETNA,70053,,
BS9722504,LA,JEFFERSON DAVIS,30.2225,-92.6624,1483850,1813,22053,31428.571428571428,6.7,21.16059086452865,RETAIL PHARMACY,STEWART'S DRUG STORE,403 W PLAQUEMINE STREET,JENNINGS,70546,,
AA3422134,LA,JEFFERSON DAVIS,30.2226,-92.6625,69200,81,22053,31428.571428571428,0.3,0.9867346839463454,RETAIL PHARMACY,AUTIN JUNIUS,STEWARTS DRUG STORE,JENNINGS,70546,,403 W PLAQUEMINE
BJ6615439,LA,LAFAYETTE,30.2298,-92.0094,2470460,2936,22055,213874.42857142858,1.7,5.176960204809096,RETAIL PHARMACY,JEFFERSON DRUG STORE,620 JEFFERSON BLVD,LAFAYETTE,70501,,
BW5505803,LA,LAFAYETTE,30.2192,-92.0064,1564580,5871,22055,213874.42857142858,1,3.2786098555281606,CHAIN PHARMACY,WAL-MART PHARMACY 10-0534,1229 NW EVANGELINE THRUWAY,LAFAYETTE,70501,,
BS4847630,LA,LAFAYETTE,30.1729,-92.0658,750900,2919,22055,213874.42857142858,0.5,1.5734726274152626,CHAIN PHARMACY,SUPER 1 PHARMACY #623,3747 AMBASSADOR CAFFERY,LAFAYETTE,70503,,
AK9199971,LA,LAFOURCHE,29.801,-90.8467,826770,2764,22057,95051.57142857143,1.2,3.898328372513208,CHAIN PHARMACY,K & B LOUISIANA CORPORATION,1625 ST. MARY STREET,THIBODAUX,70301,RITE AID #7278,
FW0582420,LA,LINCOLN,32.5242,-92.6391,729330,1661,22061,45322.142857142855,2.3,7.212269701237796,CHAIN PHARMACY,"WALGREEN LOUISIANA CO., INC.",108 W CALIFORNIA AVE,RUSTON,71270,DBA: WALGREENS #11139,
AK5577208,LA,LINCOLN,32.5233,-92.6391,635110,1818,22061,45322.142857142855,2,6.280524377366587,CHAIN PHARMACY,K & B LOUISIANA CORPORATION,105 WEST CALIFORNIA AVENUE,RUSTON,71270,RITE AID #7339,
BT9283526,LA,LINCOLN,32.5223,-92.6388,397480,1056,22061,45322.142857142855,1.3,3.930591865038893,RETAIL PHARMACY,AMYS PRESCRIPTION SHOPPE PHARMACY,104 WEST LINE AVENUE,RUSTON,71270,& FAMILY VITAL CARE,
FG0004250,LA,LINCOLN,32.5174,-92.632,383090,957,22061,45322.142857142855,1.2,3.788288583246209,RETAIL PHARMACY,GREEN CLINIC PHARMACY,1200 SOUTH FARMERVILLE STREET,RUSTON,71270,,
FP3251802,LA,LINCOLN,32.5223,-92.6388,90030,142,22061,45322.142857142855,0.3,0.8902065983842214,RETAIL PHARMACY,PRESCRIPTION SHOPPE PHARMACY,104 WEST LINE AVENUE,RUSTON,71270,PRESCRIPTION SHOPPE PHARMACY,
FW2091421,LA,LIVINGSTON,30.4464,-90.9572,628900,1378,22063,121772.85714285714,0.7,2.3146013846885647,CHAIN PHARMACY,"WALGREEN LOUISIANA CO., INC.",3081 S. RANGE AVE,DENHAM SPRINGS,70726,DBA: WALGREENS #13080,
FS3266219,LA,LIVINGSTON,30.4509,-90.9648,22800,103,22063,121772.85714285714,0,0.08381314980867872,CHAIN PHARMACY,SAM'S PHARMACY 10-4837,201 BASS PRO BLVD.,DENHAM SPRINGS,70726,,
BS2607109,LA,LIVINGSTON,30.4287,-90.5475,1631360,3255,22063,121772.85714285714,1.9,6.0042169166761745,RETAIL PHARMACY,SPRINGFIELD HEALTHMART,PO BOX 10,SPRINGFIELD,70462,DBA SPRINGFIELD DRUG STORE,31696 LA HWY 22
FH2066644,LA,LIVINGSTON,30.4332,-90.5565,344330,877,22063,121772.85714285714,0.4,1.267224041016284,RETAIL PHARMACY,"HOMETOWN PHARMACY, LLC",27118 HWY 42,SPRINGFIELD,70462,,
BS5592793,LA,MOREHOUSE,32.7944,-91.9104,161380,450,22067,28429.571428571428,0.8,2.5440536292781117,RETAIL PHARMACY,SPECIALTY PHARMACY SVCS INC,1821 N WASHINGTON,BASTROP,71220,,
BB9804142,LA,ORLEANS,30.0055,-90.1178,979300,1899,22071,298219.28571428574,0.5,1.4716820753752045,RETAIL PHARMACY,BUCKTOWN PHARMACY,234 W. HARRISON AVE,NEW ORLEANS,70124,,SUITE B
BW0355126,LA,ORLEANS,29.9362,-90.0783,2394160,5619,22071,298219.28571428574,1.1,3.598069035431621,CHAIN PHARMACY,"WALGREEN LOUISIANA CO., INC.",1801 SAINT CHARLES AVE,NEW ORLEANS,70130,DBA: WALGREENS # 05040,
BU1722378,LA,ORLEANS,29.9214,-90.1186,1617520,3485,22071,298219.28571428574,0.8,2.4308601464544677,RETAIL PHARMACY,UPTOWN DELIVERY PHARMACY,741 NASHVILLE AVE,NEW ORLEANS,70115,,
BW0691952,LA,ORLEANS,29.9209,-90.1166,859100,2793,22071,298219.28571428574,0.4,1.2910340164868468,CHAIN PHARMACY,"WALGREEN LOUISIANA CO., INC.",5518 MAGAZINE STREET,NEW ORLEANS,70115,DBA: WALGREENS #15199,
FC0837089,LA,ORLEANS,29.9667,-90.0386,2902860,4923,22071,298219.28571428574,1.4,4.362592060028188,RETAIL PHARMACY,CBJ VENTURES LLC D/B/A MED-PRO PHARMACY,3601 SAINT CLAUDE AVE,NEW ORLEANS,70117,,
FS0225551,LA,ORLEANS,29.9661,-90.0357,2313050,3113,22071,298219.28571428574,1.1,3.476169168073595,RETAIL PHARMACY,ST. CLAUDE PHARMACY,3921 ST. CLAUDE  AVE,NEW ORLEANS,70117,,
FM3242788,LA,ORLEANS,29.943,-90.0928,68400,185,22071,298219.28571428574,0,0.1026944144650157,RETAIL PHARMACY,MED-PRO PHARMACY #2,2600 S CLAIBORNE AVE,NEW ORLEANS,70125,,
BW7365756,LA,OUACHITA,32.5177,-92.1578,2747460,5061,22073,151860.14285714287,2.6,8.108613127362608,CHAIN PHARMACY,"WALGREEN LOUISIANA CO., INC.",3304 CYPRESS ST,WEST MONROE,71291,DBA: WALGREENS # 06274,
BC5321928,LA,OUACHITA,32.5168,-92.1608,1440820,2179,22073,151860.14285714287,1.4,4.252260827907597,CHAIN PHARMACY,"LOUISIANA CVS PHARMACY, L.L.C.",3423 CYPRESS ST,WEST MONROE,71291,DBA: CVS/PHARMACY  # 05521,
BW9940633,LA,OUACHITA,32.5154,-92.1913,1461400,3147,22073,151860.14285714287,1.4,4.312999616191122,CHAIN PHARMACY,"WALGREEN LOUISIANA CO., INC.",5349 CYPRESS ST,WEST MONROE,71291,DBA: WALGREENS # 10510,
AK5577195,LA,OUACHITA,32.5156,-92.1588,1004750,2530,22073,151860.14285714287,0.9,2.9652655214549046,CHAIN PHARMACY,K & B LOUISIANA CORPORATION,102 THOMAS ROAD SUITE 200,WEST MONROE,71291,RITE AID #7340,
BE5321928,LA,OUACHITA,32.5168,-92.1608,551800,821,22073,151860.14285714287,0.5,1.6284514226685924,CHAIN PHARMACY,"LOUISIANA CVS PHARMACY, L.L.C.",3423 CYPRESS ST,WEST MONROE,71291,DBA: CVS/PHARMACY  # 05521,
BB4335572,LA,OUACHITA,32.518,-92.16,450400,2696,22073,151860.14285714287,0.4,1.3291845066360675,CHAIN PHARMACY,BROOKSHIRE PHARMACY #42,3426 CYPRESS SUITE 16,WEST MONROE,71291,,
BL9455406,LA,OUACHITA,32.5141,-92.1616,114830,776,22073,151860.14285714287,0.1,0.33879990098484186,RETAIL PHARMACY,LEGENDS PHARMACY,222 BELL LANE,WEST MONROE,71291,,SUITE 5A
BL9650602,LA,OUACHITA,32.5141,-92.1616,104400,600,22073,151860.14285714287,0.1,0.30801731780713737,RETAIL PHARMACY,LEGENDS PHARMACY,222 BELL LANE,WEST MONROE,71291,,SUITE 5B
FW2238740,LA,RAPIDES,31.2969,-92.4246,371430,741,22079,130994.71428571429,0.4,1.2707272439708444,RETAIL PHARMACY,"WILDEL, LLC",3311 THIRD ST.,ALEXANDRIA,71302,THE PILL BOX PHARMACY #002,
AS1576024,LA,RAPIDES,31.3111,-92.4448,1694610,3695,22079,130994.71428571429,1.8,5.797927580387704,RETAIL PHARMACY,SENTRY DRUGS,1002 THIRD STREET,ALEXANDRIA,71301,,
FL0232291,LA,RAPIDES,31.3057,-92.4546,1064800,2275,22079,130994.71428571429,1.2,3.643061240298901,CHAIN PHARMACY,"LOUISIANA CVS PHARMACY, L.L.C.",721 BOLTON AVE,ALEXANDRIA,71301,DBA: CVS/PHARMACY  # 05276,
AP7519121,LA,RAPIDES,31.3059,-92.4535,618290,1200,22079,130994.71428571429,0.7,2.115347533763515,RETAIL PHARMACY,PROFESSIONAL PHARMACY,1414 JACKSON ST,ALEXANDRIA,71301,,
BR6656663,LA,RAPIDES,31.3151,-92.4501,159420,598,22079,130994.71428571429,0.2,0.5453446480097974,RETAIL PHARMACY,RED RIVER PHARMACY,211 FOURTH STREET,ALEXANDRIA,71301,,
BE5347946,LA,RAPIDES,31.3057,-92.4546,122600,317,22079,130994.71428571429,0.1,0.41936668855842363,CHAIN PHARMACY,"LOUISIANA CVS PHARMACY, L.L.C.",721 BOLTON AVE,ALEXANDRIA,71301,DBA: CVS/PHARMACY  # 05276,
BC5347946,LA,RAPIDES,31.3057,-92.4546,44000,123,22079,130994.71428571429,0,0.1504403546942743,CHAIN PHARMACY,"LOUISIANA CVS PHARMACY, L.L.C.",721 BOLTON AVE,ALEXANDRIA,71301,DBA: CVS/PHARMACY  # 05276,
BH8109616,LA,RAPIDES,31.315,-92.4494,10520,100,22079,130994.71428571429,0,0.0358900537048122,RETAIL PHARMACY,HEALTH SOUTH RIVERSIDE,HOSPITAL PHARMACY,ALEXANDRIA,71301,,"211 FOURTH STREET, 5TH FLOOR"
AB7540493,LA,SAINT BERNARD,29.8701,-89.8925,3347620,5719,22087,29047,16.5,51.65335735580714,RETAIL PHARMACY,BRADLEY'S PHARMACY,RICHE-GEBBIA INC,ST BERNARD,70085,,8115 EAST ST. BERNARD HIGHWAY
AM6046519,LA,SAINT LANDRY,30.4878,-92.4282,2065720,2709,22097,85333.42857142857,3.5,10.84957352852948,RETAIL PHARMACY,MAPLE AVENUE PHARMACY,1200 WEST MAPLE AVE,EUNICE,70535,,P O BOX 1002
BB6988337,LA,SAINT LANDRY,30.4873,-92.422,1491880,2753,22097,85333.42857142857,2.5,7.835622580893313,RETAIL PHARMACY,BELLARD'S FAMILY PHARMACY,621 WEST MAPLE AVENUE,EUNICE,70535,,
FM3136288,LA,SAINT LANDRY,30.4878,-92.4282,243900,245,22097,85333.42857142857,0.4,1.2809200442437558,RETAIL PHARMACY,"MAPLE AVENUE PHARMACY, INC",1200 W. MAPLE AVE,EUNICE,70535,,
AS6490231,LA,SAINT LANDRY,30.5352,-92.0816,1718700,1909,22097,85333.42857142857,2.9,9.026937849858244,RETAIL PHARMACY,SHUTE'S GOOD NEIGHBOR PHARMACY,205 NORTH MAIN STREET,OPELOUSAS,70570,,
AM3400847,LA,SAINT LANDRY,30.5356,-92.084,1505800,3973,22097,85333.42857142857,2.5,7.908733896227021,RETAIL PHARMACY,MILLER DRUGS INC,209 N MARKET ST,OPELOUSAS,70570,,
BA1285510,LA,SAINT LANDRY,30.5382,-92.0836,1325290,1435,22097,85333.42857142857,2.2,6.960650309237957,RETAIL PHARMACY,ACADIANA PHARMACY,507 NORTH MARKET ST,OPELOUSAS,70570,,
AH4746953,LA,SAINT LANDRY,30.5354,-92.0987,445000,1458,22097,85333.42857142857,0.7,2.3371474518305972,RETAIL PHARMACY,THRIFTY-T-WAY PHARMACY,1406 WEST LANDRY,OPELOUSAS,70570,,
FT1205182,LA,SAINT LANDRY,30.5354,-92.0987,230700,631,22097,85333.42857142857,0.4,1.2115903486686874,RETAIL PHARMACY,THRIFTY-T-WAY PHARMACY,1406 WEST LANDRY STREET,OPELOUSAS,70570,,
BW8319584,LA,SAINT MARTIN,30.2846,-91.9065,2442200,3774,22099,51709.42857142857,6.7,21.16771205507135,CHAIN PHARMACY,"WALGREEN LOUISIANA CO., INC.",1401 REES STREET,BREAUX BRIDGE,70517,DBA: WALGREENS # 07696,
BH7938636,LA,SAINT MARTIN,30.2807,-91.8897,1118100,2756,22099,51709.42857142857,3.1,9.691049712202208,RETAIL PHARMACY,HOLLIER'S FAMILY PHARMACY,1456 E. BRIDGE STREET,BREAUX BRIDGE,70517,,
BH1591165,LA,SAINT MARTIN,30.2779,-91.8903,998860,4494,22099,51709.42857142857,2.8,8.657534707471658,RETAIL PHARMACY,HEBERT'S SUPERETTE OF BREAUX,BRIDGE INC,BREAUX BRIDGE,70517,,1101 GRAND POINT AVE
FW0365228,LA,SAINT MARTIN,30.2931,-91.9104,1029250,3912,22099,51709.42857142857,2.8,8.920940619864828,CHAIN PHARMACY,WAL-MART PHARMACY 10-0402,1932 REES STREET,BREAUX BRIDGE,70517,,
BW9162657,LA,SAINT MARTIN,30.2829,-91.9016,732630,2988,22099,51709.42857142857,2,6.349981036644643,CHAIN PHARMACY,"WINN DIXIE MONTGOMERY, LLC.",WINN DIXIE PHARMACY # 1549,BREAUX BRIDGE,70517,,924 REES ST
BM3113406,LA,SAINT MARY,29.7025,-91.2027,2028960,5283,22101,53812.28571428572,5.4,16.898725031564403,RETAIL PHARMACY,MEDICINE SHOPPE( MORGAN CITY),926 7TH STREET,MORGAN CITY,70380,,
AK6924042,LA,SAINT MARY,29.7067,-91.2004,1965970,3522,22101,53812.28571428572,5.2,16.37409309274428,CHAIN PHARMACY,K & B LOUISIANA CORPORATION,1223 NORTH VICTOR II BLVD.,MORGAN CITY,70380,RITE AID #7283,
AM3413743,LA,SAINT MARY,29.7093,-91.1991,1066800,3144,22101,53812.28571428572,2.8,8.885074194047847,RETAIL PHARMACY,M C CLINIC PHARMACY INC,1234 DAVID DRIVE,MORGAN CITY,70380,,
AM3413983,LA,SAINT MARY,29.7051,-91.2024,950850,2430,22101,53812.28571428572,2.5,7.919348312063515,RETAIL PHARMACY,M C STANDARD DRUG STORE INC,1120 EIGHTH STREET,MORGAN CITY,70380,DBA STANDARD DRUG,PO BOX 1717
AM2528416,LA,SAINT MARY,29.7045,-91.2036,917600,3067,22101,53812.28571428572,2.4,7.642415275616951,RETAIL PHARMACY,"RUSSO'S HEALTH MART PHARM, INC",1124 7TH ST,MORGAN CITY,70380,,
FW0871865,LA,SAINT MARY,29.702,-91.203,771200,1728,22101,53812.28571428572,2,6.4230770339394505,CHAIN PHARMACY,"WALGREEN LOUISIANA CO., INC.",815 BRASHEAR AVE.,MORGAN CITY,70380,DBA:  WALGREENS #10975,
BP2411596,LA,SAINT MARY,29.7043,-91.2048,572300,1496,22101,53812.28571428572,1.5,4.766476103135798,RETAIL PHARMACY,PRESCR CTR OF MORGAN CITY,832 MARGUERITE ST,MORGAN CITY,70380,,PO BOX 2461
FS2680177,LA,SAINT MARY,29.7046,-91.2036,154300,359,22101,53812.28571428572,0.4,1.2850322163789984,RETAIL PHARMACY,ST. MARY PHARMACY,1124 7TH ST,MORGAN CITY,70381,,PO BOX 3230
BA7690832,LA,SAINT TAMMANY,30.4808,-90.038,1976560,3351,22103,228431.14285714287,1.2,3.877998524825709,RETAIL PHARMACY,ABITA PHARMACY,22107 B HIGHWAY 36,ABITA SPRINGS,70420,,
BN5299789,LA,SAINT TAMMANY,30.296,-89.7629,18074670,8023,22103,228431.14285714287,11.3,35.46323519126348,RETAIL PHARMACY,"NORTHSHORE DISC PHARMACY, INC",680 ROBERT BOULEVARD,SLIDELL,70458,,
BL6921363,LA,TERREBONNE,29.685,-90.7861,1033100,2777,22109,110670.71428571429,1.3,4.183728048552718,RETAIL PHARMACY,REMEDIES APOTHECARY,3696 W. MAIN,GRAY,70359,DBA LLOYDS REMEDIES APOTHECARY,P.O. BOX 1780
AM6792027,LA,UNION,32.9013,-92.2468,277830,992,22111,22742.428571428572,1.7,5.475182950055865,RETAIL PHARMACY,MATTES PHARMACY INC,314 MAIN STREET,MARION,71260,,P.O. BOX 17
BH6696225,LA,VERMILION,30.0051,-92.2831,962600,2027,22113,57033.857142857145,2.4,7.564351830314495,RETAIL PHARMACY,HEALTH MART PHARMACY AND,818 N CUSHING AVENUE,KAPLAN,70548,OF KAPLAN,
FT0589599,LA,VERMILION,29.9984,-92.2857,706700,2724,22113,57033.857142857145,1.8,5.5533979999016045,RETAIL PHARMACY,THRIFTY WAY PHARMACY OF KAPLAN INC.,100 NORTH CUSHING AVENUE,KAPLAN,70548,,
BC5347960,LA,VERMILION,29.9979,-92.2862,399300,1011,22113,57033.857142857145,1,3.137738728823362,CHAIN PHARMACY,"LOUISIANA CVS PHARMACY, L.L.C.",100 S. CUSHING AVE.,KAPLAN,70548,DBA: CVS/PHARMACY  # 05282,
BE5347960,LA,VERMILION,29.9979,-92.2862,196300,469,22113,57033.857142857145,0.5,1.5424920403754645,CHAIN PHARMACY,"LOUISIANA CVS PHARMACY, L.L.C.",100 S. CUSHING AVE.,KAPLAN,70548,DBA: CVS/PHARMACY  # 05282,
BT7528978,LA,VERMILION,29.9984,-92.2857,161680,1031,22113,57033.857142857145,0.4,1.2704356839514932,RETAIL PHARMACY,THRIFTY WAY PHARMACY,100 N CUSHING AVE.,KAPLAN,70548,,
AP4515916,LA,VERMILION,29.9966,-92.2863,103300,563,22113,57033.857142857145,0.3,0.8116647397564773,RETAIL PHARMACY,PRESCRIPTION SHOPPE,308 N CUSHING,KAPLAN,70548,,
FH1220374,LA,VERMILION,30.0051,-92.2831,118200,528,22113,57033.857142857145,0.3,0.9287542750169387,RETAIL PHARMACY,HEALTH MART PHARMACY LTC,818 N. CUSHING AVE.,KAPLAN,70548,,SUITE A
AH3416561,LA,VERMILION,29.9741,-92.1358,31200,105,22113,57033.857142857145,0.1,0.24507712282498315,RETAIL PHARMACY,HOLLIER DRUG STORE INC,105 S STATE ST,ABBEVILLE,70510,,
BC5286631,LA,WASHINGTON,30.8465,-90.1526,981100,2031,22117,46278.42857142857,3,9.501550738783468,CHAIN PHARMACY,"LOUISIANA CVS PHARMACY, L.L.C.",1116 WASHINGTON ST,FRANKLINTON,70438,DBA: CVS/PHARMACY  # 05451,
BF8935744,LA,WASHINGTON,30.8339,-90.1512,897320,3629,22117,46278.42857142857,2.8,8.690166981156185,RETAIL PHARMACY,FORSHAGS DRUGSTORE,P O BOX 771,FRANKLINTON,70438,,1919 MAIN ST
AI2964864,LA,WASHINGTON,30.8331,-90.1524,890380,2514,22117,46278.42857142857,2.7,8.622955196984146,RETAIL PHARMACY,IDEAL PHARMACY,808 RIVERSIDE DR,FRANKLINTON,70438,,
BF8127929,LA,WASHINGTON,30.8436,-90.1579,824500,4519,22117,46278.42857142857,2.5,7.984927482106068,RETAIL PHARMACY,FREDS PHARMACY #1666,708 WASHINGTON STREET,FRANKLINTON,70438,,
BE5286631,LA,WASHINGTON,30.8465,-90.1526,381000,932,22117,46278.42857142857,1.2,3.6897651938785594,CHAIN PHARMACY,"LOUISIANA CVS PHARMACY, L.L.C.",1116 WASHINGTON ST,FRANKLINTON,70438,DBA: CVS/PHARMACY  # 05451,
FR0948200,LA,WASHINGTON,30.8362,-90.152,69200,306,22117,46278.42857142857,0.2,0.6700772536996701,RETAIL PHARMACY,RX REMEDIES,1723 MAIN ST,FRANKLINTON,70438,,
BE8171376,LA,CADDO,32.4544,-93.7079,2370200,4413,22017,252980.2857142857,1.3,4.199060697773134,RETAIL PHARMACY,EMPORIUM DRUG MART OF,DBA DRUG EMPORIUM 210,SHREVEPORT,71105,SHREVEPORT,5819 EAST KINGS HWY
AA7373183,LA,CADDO,32.4554,-93.7094,1131970,3305,22017,252980.2857142857,0.6,2.0053507707208067,CHAIN PHARMACY,ALBERTSONS LLC,105 SOUTHFIELD ROAD,SHREVEPORT,71105,SAV-ON PHARMACY #0218,
BK5508481,LA,CADDO,32.4448,-93.7221,816300,2482,22017,252980.2857142857,0.5,1.4460940795789283,CHAIN PHARMACY,KROGER FOOD AND DRUG,6652 YOUREE,SHREVEPORT,71105,,
AK7510375,LA,CADDO,32.4557,-93.7214,728000,2146,22017,252980.2857142857,0.4,1.289657402581343,CHAIN PHARMACY,K & B LOUISIANA CORPORATION,5711 YOUREE DRIVE,SHREVEPORT,71105,RITE AID #7328,
BA7262621,LA,EAST BATON ROUGE,30.3556,-91.1111,489120,2135,22033,434462.71428571426,0.2,0.5044733710914682,CHAIN PHARMACY,ALBERTSONS LLC,9960 BLUEBONNET BLVD.,BATON ROUGE,70810,SAV-ON PHARMACY #3792,
AT6685412,LA,EVANGELINE,30.486,-92.5934,532120,1702,22039,34594.142857142855,2.2,6.893900893254408,RETAIL PHARMACY,"THRIFT-T-WAY PHARMACY OF, BASI",3131 STAGG AVENUE,BASILE,70515,,PO BOX 426
FT2469864,LA,EVANGELINE,30.4859,-92.5934,302500,698,22039,34594.142857142855,1.2,3.919005525684232,RETAIL PHARMACY,THRIFTY WAY PHARMACY OF BASILE,3131 STAGG AVE,BASILE,70515,,PO BOX 426
FB2952302,LA,EVANGELINE,30.4854,-92.5959,33200,144,22039,34594.142857142855,0.1,0.4300266802585346,RETAIL PHARMACY,"BASILE FAMILY PHARMACY, LLC",2932 STAGG AVENUE,BASILE,70515,,SUITE B
BA6985228,LA,LAFAYETTE,30.1983,-92.0737,582590,1724,22055,213874.42857142858,0.4,1.2207643798687065,CHAIN PHARMACY,ALBERTSONS LLC,2863 AMBASSADOR CAFFERY,LAFAYETTE,70506,SAV-ON PHARMACY #775,
FP2834162,LA,LAFAYETTE,30.2012,-92.0733,211800,590,22055,213874.42857142858,0.1,0.44374167707156126,RETAIL PHARMACY,"PALLIATIVE PHARMACY SOLUTIONS, LLC.",620 GUILBEAU RD STE D,LAFAYETTE,70506,,
BW5505891,LA,LAFOURCHE,29.4707,-90.3244,2429710,8998,22057,95051.57142857143,3.7,11.456600473045759,CHAIN PHARMACY,WAL-MART PHARMACY 10-0502,16759 HIGHWAY 3235,GALLIANO,70354,,
BC5312777,LA,LAFOURCHE,29.4713,-90.3154,1890700,2439,22057,95051.57142857143,2.8,8.915030454886594,CHAIN PHARMACY,"LOUISIANA CVS PHARMACY, L.L.C.",16804 W. MAIN ST,CUT OFF,70345,DBA: CVS/PHARMACY  # 05432,
BE5312777,LA,LAFOURCHE,29.4713,-90.3154,882300,1137,22057,95051.57142857143,1.3,4.160166525995292,CHAIN PHARMACY,"LOUISIANA CVS PHARMACY, L.L.C.",16804 W. MAIN ST,CUT OFF,70345,DBA: CVS/PHARMACY  # 05432,
AR1939581,LA,LA SALLE,31.9044,-92.2416,625420,1634,22059,14575.142857142857,6.1,19.231854373021505,RETAIL PHARMACY,R AND K DRUGS,2832 FRONT STREET,OLLA,71465,,PO BOX 699
AU8944983,LA,LA SALLE,31.8634,-92.2949,558270,1430,22059,14575.142857142857,5.5,17.16696041187788,RETAIL PHARMACY,URANIA DRUG STORE,2164 E HARDTNER DRIVE,URANIA,71480,,P.O. BOX 640
FC2468634,LA,RAPIDES,31.3906,-92.2308,587100,1341,22079,130994.71428571429,0.6,2.0086323638751837,RETAIL PHARMACY,CROSSROADS-HOLLOWAY PHARMACY,12805 HIGHWAY 28 EAST,PINEVILLE,71360,,SUITE A
BC8738241,LA,RICHLAND,32.3198,-91.7756,768380,2267,22083,20671.14285714286,5.3,16.65993947076081,RETAIL PHARMACY,CLINIC PHARMACY OF MANGHAM,PO BOX 270 ARCHIBALD 71218,MANGHAM,71259,,252 HWY 132 MANGHAM 71259
BM6489822,LA,RICHLAND,32.3092,-91.7757,357650,1113,22083,20671.14285714286,2.5,7.7544766651469965,RETAIL PHARMACY,MANGHAM RX,104 LOUISIANA STREET,MANGHAM,71259,,PO BOX 207
AK1906075,LA,TERREBONNE,29.6087,-90.7424,335290,1870,22109,110670.71428571429,0.4,1.3577483787567852,CHAIN PHARMACY,K MART PHARMACY #3320,133 MONARCH DRIVE,HOUMA,70364,,
BF7084192,LA,CADDO,32.4783,-93.7217,9500,32,22017,252980.2857142857,0,0.01672702406758009,RETAIL PHARMACY,FAMILY CLINIC PHARMACY,3331 YOUREE DRIVE STE B,SHREVEPORT,71105,,
BW0911859,LA,JEFFERSON,29.9583,-90.2184,1847140,4884,22051,432413.71428571426,0.6,1.9144384079664833,CHAIN PHARMACY,"WALGREEN LOUISIANA CO., INC.",9705 JEFFERSON HWY,RIVER RIDGE,70123,DBA: WALGREENS # 13658,
BC5312979,LA,JEFFERSON,29.9575,-90.2171,765100,2152,22051,432413.71428571426,0.3,0.7929148161893406,CHAIN PHARMACY,"LOUISIANA CVS PHARMACY, L.L.C.",9643-B JEFFERSON HWY,RIVER RIDGE,70123,DBA: CVS/PHARMACY  # 05340,
BE5312979,LA,JEFFERSON,29.9575,-90.2171,311400,810,22051,432413.71428571426,0.1,0.3226593232414925,CHAIN PHARMACY,"LOUISIANA CVS PHARMACY, L.L.C.",9643-B JEFFERSON HWY,RIVER RIDGE,70123,DBA: CVS/PHARMACY  # 05340,
FA1163132,LA,JEFFERSON,29.957,-90.2172,71100,231,22051,432413.71428571426,0,0.07359078686201724,RETAIL PHARMACY,AVITA DRUGS LLC,STE G,NEW ORLEANS,70123,6226 JEFFERSON HWY,
AC1912218,LA,TANGIPAHOA,30.5013,-90.481,5410695,10890,22105,117576.28571428571,6.6,20.62508237757617,RETAIL PHARMACY,CHANNELL DRUGS,1812  W THOMAS STREET,HAMMOND,70401,,
AW1604051,LA,TANGIPAHOA,30.5012,-90.4818,3636690,6936,22105,117576.28571428571,4.4,13.862700994580376,CHAIN PHARMACY,"WALGREEN LOUISIANA CO., INC.",1910 W THOMAS,HAMMOND,70401,DBA: WALGREENS # 06027,
FA1345835,LA,TANGIPAHOA,30.5013,-90.4755,1346910,3025,22105,117576.28571428571,1.6,5.1342218509724935,RETAIL PHARMACY,A-1 DISCOUNT PHARMACY,1322 W THOMAS ST,HAMMOND,70401,,
AF2371158,LA,TANGIPAHOA,30.5045,-90.4624,1001860,2439,22105,117576.28571428571,1.2,3.8189156955768224,RETAIL PHARMACY,MANNINO'S FAMILY PRACT PHARM,113 WEST CHARLES ST,HAMMOND,70401,,
BS7083607,LA,WEST BATON ROUGE,30.4485,-91.2096,2209860,3413,22121,23145.285714285714,13.6,42.79230891983014,RETAIL PHARMACY,STEVENS PHARMACY INC,520 S ALEXANDER AVE,PORT ALLEN,70767,,SUITE 200
BP5186172,LA,WEST BATON ROUGE,30.4538,-91.2096,925550,2415,22121,23145.285714285714,5.7,17.92253283163063,RETAIL PHARMACY,PORT ALLEN SUPERMARKET PHARM,220 NORTH ALEXANDER STREET,PORT ALLEN,70767,,
BB6025349,LA,WEST BATON ROUGE,30.4611,-91.2058,851390,2253,22121,23145.285714285714,5.3,16.48647565330073,RETAIL PHARMACY,BOURG'S DRUG,484 LOUISIANA AVENUE,PORT ALLEN,70767,,PO BOX 47
BB5713804,LA,BOSSIER,32.4583,-93.6626,1873300,5319,22015,113206.57142857143,2.4,7.4164177284247295,CHAIN PHARMACY,BROOKSHIRE PHARMACY,4918 BARKSDALE BLVD,BOSSIER CITY,71112,,
FC1045613,LA,LIVINGSTON,30.2938,-90.6402,930200,1849,22063,121772.85714285714,1.1,3.4235545197641457,RETAIL PHARMACY,CHRIS' PHARMACY AND GIFTS LLC,18525 HWY 22,MAUREPAS,70449,,
AK3416826,LA,ORLEANS,29.9981,-90.0597,285090,1081,22071,298219.28571428574,0.1,0.42835687603338635,CHAIN PHARMACY,K & B LOUISIANA CORPORATION,3100 GENTILLY BOULEVARD,NEW ORLEANS,70122,RITE AID #7266,
AA4383511,LA,OUACHITA,32.5209,-92.1105,796470,3802,22073,151860.14285714287,0.7,2.3505582899829687,RETAIL PHARMACY,ARON'S PHARMACY,"ARON, CARL W",MONROE,71201,,1209 NO 18TH ST
BF4170243,LA,OUACHITA,32.5251,-92.1153,680300,4351,22073,151860.14285714287,0.6,2.0076999306585277,RETAIL PHARMACY,FRED'S PHARMACY #2356,1701 NORTH 18TH STREET,MONROE,71201,,
BC9615975,LA,LAFAYETTE,30.2338,-92.0955,4470300,6956,22055,213874.42857142858,3,9.367798905857784,RETAIL PHARMACY,CASHWAY PHARMACY OF SCOTT,5900 CAMERON ST SUITE 100,SCOTT,70583,,P.O. BOX 809
BC5322867,LA,LAFAYETTE,30.2318,-92.0865,746360,1693,22055,213874.42857142858,0.5,1.5639586624466846,CHAIN PHARMACY,"LOUISIANA CVS PHARMACY, L.L.C.",111 WESTGATE RD.,LAFAYETTE,70506,DBA: CVS/PHARMACY  # 05554,
FW0788375,LA,LAFAYETTE,30.2334,-92.0868,696400,1425,22055,213874.42857142858,0.5,1.459263136052377,CHAIN PHARMACY,"WALGREEN LOUISIANA CO., INC.",5416 CAMERON ST,SCOTT,70583,DBA: WALGREENS #11997,
BK4887127,LA,LAFAYETTE,30.211,-92.0776,507490,1673,22055,213874.42857142858,0.3,1.0633857963576474,CHAIN PHARMACY,K & B LOUISIANA CORPORATION,2252 AMBASSADOR CAFFERY PKWY.,LAFAYETTE,70506,RITE AID #7293,
BE5322867,LA,LAFAYETTE,30.2318,-92.0865,407700,641,22055,213874.42857142858,0.3,0.8542671698787048,CHAIN PHARMACY,"LOUISIANA CVS PHARMACY, L.L.C.",111 WESTGATE RD.,LAFAYETTE,70506,DBA: CVS/PHARMACY  # 05554,
FW0577722,LA,LAFAYETTE,30.2114,-92.0777,237040,1096,22055,213874.42857142858,0.2,0.496634292888061,CHAIN PHARMACY,WINN DIXIE PHARMACY #1561,2240 AMBASSADOR CAFFERY PKWY,LAFAYETTE,70506,,
AC7022825,LA,LAFAYETTE,30.2338,-92.0955,219280,268,22055,213874.42857142858,0.1,0.4594166678127426,RETAIL PHARMACY,CASHWAY PHARMACY,5900 CAMERON STREET,SCOTT,70583,,SUITE 100
BT9631854,LA,LAFAYETTE,30.2338,-92.0955,24230,32,22055,213874.42857142858,0,0.05067242395346048,RETAIL PHARMACY,THE COMPOUNDING PHARMACY,5900 CAMERON ST SUITE 100A,SCOTT,70583,,PO BOX 809
BW4861159,LA,LAFAYETTE,30.2114,-92.0777,48900,187,22055,213874.42857142858,0,0.10237055518139428,CHAIN PHARMACY,"WINN-DIXIE PHARMACY, #1561","WINN DIXIE LA., INC",LAFAYETTE,70506,,2240 AMBASSADOR CAFFERY PKWY
BW9728772,LA,LAFAYETTE,30.2114,-92.0777,45700,373,22055,213874.42857142858,0,0.09566467678944504,CHAIN PHARMACY,WINN DIXIE MONTGOMERY,WINN DIXIE PHARMACY # 1561,LAFAYETTE,70506,,2240 AMB CAFFERY
BT9040356,LA,LAFAYETTE,30.2338,-92.0955,500,1,22055,213874.42857142858,0,9.441445031617657e-4,RETAIL PHARMACY,"THE COMPOUNDING PHARMACY OF, SCOTT","5900 CAMECON ST, SUITE A",SCOTT,70583,,
BW5505776,LA,SAINT TAMMANY,30.4433,-90.0785,1221200,6248,22103,228431.14285714287,0.8,2.3959472549337506,CHAIN PHARMACY,WAL-MART PHARMACY 10-0541,880 NORTH HWY 190,COVINGTON,70433,,
FW1113492,LA,SAINT TAMMANY,30.4594,-90.0413,1027700,2918,22103,228431.14285714287,0.6,2.0162913018463566,CHAIN PHARMACY,"WALGREEN LOUISIANA CO., INC.",70997 HIGHWAY 59,ABITA SPRINGS,70420,DBA: WALGREENS #11996,
FL1897125,LA,SAINT TAMMANY,30.4582,-90.0812,629100,1478,22103,228431.14285714287,0.4,1.234219658949017,CHAIN PHARMACY,"LOUISIANA CVS PHARMACY, L.L.C.",1850 N. HIGHWAY 190,COVINGTON,70433,DBA: CVS/PHARMACY  # 08922,
BT8865858,LA,SAINT TAMMANY,30.4418,-90.0804,169900,856,22103,228431.14285714287,0.1,0.3332480121390359,CHAIN PHARMACY,THE GREAT ATLANTIC AND,SAV-A-CENTER PHARMACY #082,COVINGTON,70433,"PACIFIC TEA CO, INC.",50 PARK PL
BW9162760,LA,ASCENSION,30.3343,-90.9831,795500,4177,22005,101895.85714285714,1.1,3.498930768711987,CHAIN PHARMACY,"WINN DIXIE MONTGOMERY, LLC.",WINN DIXIE PHARMACY # 1590,PRAIRIEVILLE,70769,,17682 AIRLINE HWY
BT9226146,LA,ASCENSION,30.3278,-90.9795,458460,1283,22005,101895.85714285714,0.6,2.016448606368607,RETAIL PHARMACY,THE WELLNESS CORNER,17733 OLD JEFFERSON HIGHWAY,PRAIRIEVILLE,70769,,
BW9380394,LA,ASCENSION,30.3308,-90.9865,927800,4751,22005,101895.85714285714,1.3,4.080856920142171,CHAIN PHARMACY,WAL-MART PHARMACY 10-5056,17585 AIRLINE HIGHWAY,PRAIRIEVILLE,70769,,
BC5276325,LA,CADDO,32.4801,-93.723,349000,848,22017,252980.2857142857,0.2,0.6182021298510492,CHAIN PHARMACY,"LOUISIANA CVS PHARMACY, L.L.C.",3300 YOUREE DR,SHREVEPORT,71105,DBA: CVS/PHARMACY  # 05329,
BE5276325,LA,CADDO,32.4801,-93.723,194500,442,22017,252980.2857142857,0.1,0.34448223635017733,CHAIN PHARMACY,"LOUISIANA CVS PHARMACY, L.L.C.",3300 YOUREE DR,SHREVEPORT,71105,DBA: CVS/PHARMACY  # 05329,
AW3417210,LA,CALCASIEU,30.2125,-93.1808,2006900,5431,22019,188386.85714285713,1.5,4.774525987663646,CHAIN PHARMACY,"WALGREEN LOUISIANA CO., INC.",2000 GERTSNER MEMORIAL DR,LAKE CHARLES,70601,DBA: WALGREENS # 03373,
AT5774523,LA,CALCASIEU,30.2237,-93.1958,527790,1163,22019,188386.85714285713,0.4,1.2555651815053777,RETAIL PHARMACY,THRIF-T-WAY PHARMACY,MAYEUX TED MICHAEL,LAKE CHARLES,70601,,1001 3RD AVE
FT1113719,LA,CALCASIEU,30.2237,-93.1958,445500,1270,22019,188386.85714285713,0.3,1.0597884747433628,RETAIL PHARMACY,"THRIFTY WAY OF LAKE CHARLES, INC",1001 3RD AVE,LAKE CHARLES,70601,,
BC5710757,LA,EAST BATON ROUGE,30.4704,-91.1627,929160,1664,22033,434462.71428571426,0.3,0.9584193800853853,CHAIN PHARMACY,"LOUISIANA CVS PHARMACY, L.L.C.",2520 PLANK RD,BATON ROUGE,70805,DBA: CVS/PHARMACY  # 05615,
BE5710757,LA,EAST BATON ROUGE,30.4704,-91.1627,544500,748,22033,434462.71428571426,0.2,0.5616034728505881,CHAIN PHARMACY,"LOUISIANA CVS PHARMACY, L.L.C.",2520 PLANK RD,BATON ROUGE,70805,DBA: CVS/PHARMACY  # 05615,
BW5506590,LA,EAST BATON ROUGE,30.4628,-91.0901,1217560,5246,22033,434462.71428571426,0.4,1.255933308350647,CHAIN PHARMACY,WAL-MART PHARMACY 10-0839,9350 CORTANA PL,BATON ROUGE,70815,,
BS7018307,LA,EAST BATON ROUGE,30.4615,-91.0976,866120,4077,22033,434462.71428571426,0.3,0.8933872093577776,CHAIN PHARMACY,SAM'S PHARMACY 10-8204,9598 CORTANA PLACE,BATON ROUGE,70815,,
BW5505752,LA,IBERVILLE,30.2639,-91.255,1913860,6760,22047,33405.42857142857,8.2,25.677688266733856,CHAIN PHARMACY,WAL-MART PHARMACY 10-0401,59690 BELLVIEW DR,PLAQUEMINE,70764,,
BW9163154,LA,IBERVILLE,30.2782,-91.2306,35300,217,22047,33405.42857142857,0.2,0.47350782447962114,CHAIN PHARMACY,WINN DIXIE MONTGOMERY,WINN DIXIE PHARMACY # 1579,PLAQUEMINE,70765,,58045 BELLEVIEW RD
FE3522883,LA,IBERVILLE,30.2782,-91.2306,8130,27,22047,33405.42857142857,0,0.10897457421556384,RETAIL PHARMACY,ELLIOTT PHARMACY #6,58045 BELLEVIEW DR,PLAQUEMINE,70764,,SUITE A
AK8984850,LA,JEFFERSON,29.9012,-90.0475,443090,2157,22051,432413.71428571426,0.1,0.45915468552119737,CHAIN PHARMACY,K MART PHARMACY #3347,2701 BELLE CHASE HIGHWAY,GRETNA,70053,,
AV8550659,LA,MOREHOUSE,32.7766,-91.7957,285990,991,22067,28429.571428571428,1.4,4.508531497946379,RETAIL PHARMACY,VILLAGE PHARMACY INC,P.O. BOX 165 308 DAVENPORT,MER ROUGE,71261,,
AB3411686,LA,MOREHOUSE,32.7761,-91.7932,252050,1002,22067,28429.571428571428,1.3,3.973467066017954,RETAIL PHARMACY,BRODIE PHARMACY INC,C/O MARGARET B PHILLEY,MER ROUGE,71261,,204 DAVENPORT
FW0503284,LA,ORLEANS,30.0189,-89.9721,118920,979,22071,298219.28571428574,0.1,0.17862070344205241,CHAIN PHARMACY,WINN DIXIE PHARMACY # 1439,9701 CHEF MENTEUR HWY,NEW ORLEANS,70127,,
FW1784897,LA,ORLEANS,29.9746,-90.0997,640060,1799,22071,298219.28571428574,0.3,0.9618397501065992,CHAIN PHARMACY,"WALGREEN LOUISIANA CO., INC.",4001 CANAL ST,NEW ORLEANS,70119,DBA: WALGREENS #10316,
AW1604049,LA,SAINT TAMMANY,30.2855,-89.7789,5499720,9541,22103,228431.14285714287,3.4,10.790601458569292,CHAIN PHARMACY,"WALGREEN LOUISIANA CO., INC.",1260 FRONT STREET,SLIDELL,70458,DBA: WALGREENS # 04007,
BC5276337,LA,SAINT TAMMANY,30.2842,-89.765,2803300,4101,22103,228431.14285714287,1.8,5.500100657412129,CHAIN PHARMACY,"LOUISIANA CVS PHARMACY, L.L.C.",1305 GAUSE BLVD.,SLIDELL,70458,DBA: CVS/PHARMACY  # 05330,
BE5276337,LA,SAINT TAMMANY,30.2842,-89.765,901600,1297,22103,228431.14285714287,0.6,1.7688772673020652,CHAIN PHARMACY,"LOUISIANA CVS PHARMACY, L.L.C.",1305 GAUSE BLVD.,SLIDELL,70458,DBA: CVS/PHARMACY  # 05330,
AW5990937,LA,TERREBONNE,29.4438,-90.5951,811090,2234,22109,110670.71428571429,1,3.2846355355600774,RETAIL PHARMACY,WOLFE'S PHARMACY,5458 HWY 56,CHAUVIN,70344,WOLFE PETER HORACE,PO BOX 597
BC5312830,LA,VERMILION,29.9811,-92.1236,266500,697,22113,57033.857142857145,0.7,2.0941487769717324,CHAIN PHARMACY,"LOUISIANA CVS PHARMACY, L.L.C.",1100 VETERANS MEMORIAL DR,ABBEVILLE,70510,DBA: CVS/PHARMACY  # 05275,
BE5312830,LA,VERMILION,29.9811,-92.1236,160700,374,22113,57033.857142857145,0.4,1.2627344930417448,CHAIN PHARMACY,"LOUISIANA CVS PHARMACY, L.L.C.",1100 VETERANS MEMORIAL DR,ABBEVILLE,70510,DBA: CVS/PHARMACY  # 05275,
BK3404718,LA,CADDO,32.4543,-93.7455,1264240,3048,22017,252980.2857142857,0.7,2.2396868892538833,CHAIN PHARMACY,K & B LOUISIANA CORPORATION,761 PIERREMONT ROAD,SHREVEPORT,71106,RITE AID #7329,
BW3550185,LA,CALCASIEU,30.2281,-93.3602,3780400,7982,22019,188386.85714285713,2.9,8.993872073973444,CHAIN PHARMACY,"WALGREEN LOUISIANA CO., INC.",1021 BEGLIS PKWY,SULPHUR,70663,DBA: WALGREENS # 02920,
BB3854090,LA,CALCASIEU,30.2251,-93.375,1669020,3386,22019,188386.85714285713,1.3,3.9706733484517165,CHAIN PHARMACY,BROOKSHIRE BROTHERS PHARM 47,1612 RUTH ST,SULPHUR,70663,,
AK3417020,LA,CALCASIEU,30.2362,-93.359,640000,1871,22019,188386.85714285713,0.5,1.5225247667012176,CHAIN PHARMACY,K & B LOUISIANA CORPORATION,1601 E. NAPOLEON STREET,SULPHUR,70663,RITE AID #7311,
BW7825839,LA,CALCASIEU,30.2307,-93.3687,97300,584,22019,188386.85714285713,0.1,0.23138345232832352,RETAIL PHARMACY,WEST CAL PHARMACY,701 CYPRESS STREET,SULPHUR,70663,,SUITE 4000
FE1128152,LA,EAST BATON ROUGE,30.4794,-91.1406,304450,507,22033,434462.71428571426,0.1,0.31396748644255734,RETAIL PHARMACY,EXPRESS PHARMACY,3328 N. FOSTER DR.,BATON ROUGE,70805,,
BW5680031,LA,IBERIA,29.9862,-91.8208,2514000,4547,22045,73613.85714285714,4.9,15.30619760129074,CHAIN PHARMACY,"WALGREEN LOUISIANA CO., INC.",1017 E. ADMIRAL DOYLE DR.,NEW IBERIA,70560,DBA: WALGREENS # 04192,
AC5778521,LA,JEFFERSON,30.0144,-90.1625,6643260,17004,22051,432413.71428571426,2.2,6.885568614792654,RETAIL PHARMACY,CHATEAU DRUGS,3544 W. ESPLANADE AVE.,METAIRIE,70002,CHATEAU DRUGS,
FC0100216,LA,JEFFERSON,30.0024,-90.1383,2680280,6640,22051,432413.71428571426,0.9,2.7779796497442444,RETAIL PHARMACY,C'S DISCOUNT PHARMACY,1401 VETERANS BLVD,METAIRIE,70005,,
BC5276399,LA,JEFFERSON,30.0027,-90.1358,630400,1700,22051,432413.71428571426,0.2,0.6532996191426685,CHAIN PHARMACY,"LOUISIANA CVS PHARMACY, L.L.C.",1107 VETERANS MEMORIAL BLVD,METAIRIE,70005,DBA: CVS/PHARMACY  # 05337,
AK3370361,LA,JEFFERSON,30.0026,-90.1419,675900,2341,22051,432413.71428571426,0.2,0.7004599121317078,CHAIN PHARMACY,K & B LOUISIANA CORPORATION,725 VETERANS MEMORIAL BLVD,METAIRIE,70005,RITE AID #7237,
BC1113961,LA,JEFFERSON,30.0023,-90.1382,734900,1009,22051,432413.71428571426,0.2,0.7616128195240883,RETAIL PHARMACY,C'S DISCOUNT PHARMACY,"CIOLINO PHARMACY, INC.",METAIRIE,70005,,1401 VETERANS BLVD
FW2114510,LA,JEFFERSON,30.0026,-90.142,630920,1891,22051,432413.71428571426,0.2,0.6538385939196861,CHAIN PHARMACY,"WALGREEN LOUISIANA CO., INC.",1717 VETERANS MEMORIAL BLVD,METAIRIE,70005,DBA: WALGREENS #13679,
BE5276399,LA,JEFFERSON,30.0027,-90.1358,329600,858,22051,432413.71428571426,0.1,0.3415234404371081,CHAIN PHARMACY,"LOUISIANA CVS PHARMACY, L.L.C.",1107 VETERANS MEMORIAL BLVD,METAIRIE,70005,DBA: CVS/PHARMACY  # 05337,
FL3170800,LA,JEFFERSON,30.0024,-90.1383,204130,386,22051,432413.71428571426,0.1,0.21147504568249825,CHAIN PHARMACY,"LOUISIANA CVS PHARMACY, L.L.C.",1401 VETERANS BLVD.,METAIRIE,70005,DBA CVS/PHARMACY # 10145,
BT6167301,LA,LAFAYETTE,30.2451,-92.0065,934810,2680,22055,213874.42857142858,0.6,1.9588720321225717,RETAIL PHARMACY,THRIFTY WAY PHARMACY,NORTHSIDE INC.,LAFAYETTE,70501,,1419 MOSS STREET
BS6029450,LA,LAFAYETTE,30.244,-92.0162,906220,2706,22055,213874.42857142858,0.6,1.8989591998644997,CHAIN PHARMACY,SUPER ONE PHARMACY #627,215 W. WILLOW STREET,LAFAYETTE,70501,,
BC5276111,LA,LAFAYETTE,30.2434,-92.007,651500,1383,22055,213874.42857142858,0.4,1.3651712798653388,CHAIN PHARMACY,"LOUISIANA CVS PHARMACY, L.L.C.",1315 MOSS ST EXT,LAFAYETTE,70501,DBA: CVS/PHARMACY  # 05285,
BE5276111,LA,LAFAYETTE,30.2434,-92.007,392200,608,22055,213874.42857142858,0.3,0.8217855714177005,CHAIN PHARMACY,"LOUISIANA CVS PHARMACY, L.L.C.",1315 MOSS ST EXT,LAFAYETTE,70501,DBA: CVS/PHARMACY  # 05285,
BP2247422,LA,LAFAYETTE,30.2447,-92.0176,17950,115,22055,213874.42857142858,0,0.03751213760926007,RETAIL PHARMACY,"PRIDE PLAZA PHARMACY, INC",850 NORTH PIERCE ST,LAFAYETTE,70501,,
BC9686291,LA,LAFAYETTE,30.2506,-92.0226,1800,18,22055,213874.42857142858,0,0.0036684075998911518,RETAIL PHARMACY,CENTRAL PHARMACY SERVICES LLC,811 MARTIN LUTHER KING JR DRIVE,LAFAYETTE,70501,,
BL7636624,LA,LAFAYETTE,30.2506,-92.0226,60,2,22055,213874.42857142858,0,2.2086224268742613e-5,RETAIL PHARMACY,LAFAYETTE COMMUNITY PHARMACY,811 MARTIN LUTHER KING JR DR,LAFAYETTE,70501,,
AT5821790,LA,MADISON,32.4017,-91.1849,166000,550,22065,12236.714285714286,1.9,6.079955797508921,RETAIL PHARMACY,"CITY PHARMACY OF TALLULAH, INC",1009 JOHNSON STREET,TALLULAH,71282,,
AC3183162,LA,ORLEANS,29.9196,-90.0156,1121800,2608,22071,298219.28571428574,0.5,1.6858447075847796,RETAIL PHARMACY,CARR'S DRUGS INC,3500 HOLIDAY DRIVE,NEW ORLEANS,70114,,
BW5506033,LA,ORLEANS,29.9117,-90.018,718600,3706,22071,298219.28571428574,0.3,1.079877175606529,CHAIN PHARMACY,WAL-MART PHARMACY 10-1163,4001 BEHRMAN HWY,NEW ORLEANS,70114,,
BC5312727,LA,ORLEANS,29.9239,-90.0209,551300,1491,22071,298219.28571428574,0.3,0.828442730914165,CHAIN PHARMACY,"LOUISIANA CVS PHARMACY, L.L.C.",3621 GENERAL DEGAULLE DR.,NEW ORLEANS,70131,DBA: CVS/PHARMACY  # 05387,
BE5312727,LA,ORLEANS,29.9239,-90.0209,107500,432,22071,298219.28571428574,0.1,0.16145763495199386,CHAIN PHARMACY,"LOUISIANA CVS PHARMACY, L.L.C.",3621 GENERAL DEGAULLE DR.,NEW ORLEANS,70131,DBA: CVS/PHARMACY  # 05387,
BS5998490,LA,ORLEANS,29.9189,-90.0144,75000,497,22071,298219.28571428574,0,0.11261352585156445,CHAIN PHARMACY,SAV-A-CENTER PHARMACY,"TEA CO., INC",ALGIERS,70114,THE GREAT ATLANTIC & PACIFIC,4001 GEN. DEGAULLE DR SUITE G
FL3055197,LA,CADDO,32.3935,-93.7257,108600,283,22017,252980.2857142857,0.1,0.1922975188632849,CHAIN PHARMACY,"LOUISIANA CVS PHARMACY, L.L.C.",9510 ELLERBE RD.,SHREVEPORT,71106,DBA CVS/PHARMACY # 4743,
BW8616015,LA,EAST BATON ROUGE,30.409,-91.0201,690900,3852,22033,434462.71428571426,0.2,0.7126299607078499,CHAIN PHARMACY,WAL-MART PHARMACY 10-5328,14241 COURSEY BLVD,BATON ROUGE(COURSEY),70817,,
FF3196068,LA,EAST BATON ROUGE,30.4087,-91.0257,10100,45,22033,434462.71428571426,0,0.010315528103861936,RETAIL PHARMACY,FAMILY PHARMACY & GIFTS LLC,13707 COURSEY BLVD. STE B,BATON ROUGE,70817,,
BW9583990,LA,ACADIA,30.248,-92.2688,679360,1744,22001,60885,1.6,5.000866007110908,CHAIN PHARMACY,"WALGREEN LOUISIANA CO., INC.",1204 THE BLVD,RAYNE,70578,DBA: WALGREENS # 09862,
BM2762943,LA,ACADIA,30.2339,-92.2685,439640,1490,22001,60885,1,3.2362162691783727,RETAIL PHARMACY,MOUTON PHARMACY,301 SOUTH ADAMS STREET,RAYNE,70578,,
BR5191298,LA,ACADIA,30.2441,-92.2554,393320,1667,22001,60885,0.9,2.8952410653529297,RETAIL PHARMACY,RAYNE PHARMACY,713 CURTIS DR,RAYNE,70578,,
FC3219525,LA,ACADIA,30.2716,-92.2613,4300,14,22001,60885,0,0.03154992130773148,RETAIL PHARMACY,CARE RX EXPRESS,"2400 CHURCH POINT HWY, SUITE A",RAYNE,70578,,
BR9688562,LA,ASCENSION,30.2845,-90.9223,2352100,4763,22005,101895.85714285714,3.3,10.345690007685715,RETAIL PHARMACY,RALPH'S PHARMACY,15013 HIGHWAY 44 STE B,GONZALES,70737,,
BT2207276,LA,ASCENSION,30.2187,-90.9212,3062190,3878,22005,101895.85714285714,4.3,13.46904556981012,RETAIL PHARMACY,THE MEDICINE SHOPPE,1817 SOUTH BURNSIDE AVE,GONZALES,70737,,
BF6048234,LA,ASCENSION,30.2124,-90.9221,1864960,6941,22005,101895.85714285714,2.6,8.202987774823281,RETAIL PHARMACY,FRED'S PHARMACY #1711,228 WEST HIGHWAY 30,GONZALES,70737,,
AB3419872,LA,ASCENSION,30.217,-90.9215,1536230,4141,22005,101895.85714285714,2.2,6.757057436503974,RETAIL PHARMACY,BERTRAND'S PHARMACY,2001 S. BURNSIDE AVE.,GONZALES,70737,,
BK1604811,LA,ASCENSION,30.2319,-90.9102,811350,3400,22005,101895.85714285714,1.1,3.5686475449793225,CHAIN PHARMACY,K MART PHARMACY,115 S AIRLINE HIGHWAY,GONZALES,70737,,
FW0654168,LA,ASCENSION,30.2103,-90.9213,1090030,2780,22005,101895.85714285714,1.5,4.794431217545941,CHAIN PHARMACY,"WALGREEN LOUISIANA CO., INC.",105 WEST HIGHWAY 30,GONZALES,70737,DBA: WALGREENS #11413,
BG8221917,LA,ASCENSION,30.2106,-90.9106,676770,2868,22005,101895.85714285714,0.9,2.976692734250115,RETAIL PHARMACY,GPS,1039 EAST HIGHWAY 30,GONZALES,70737,,
BP9698842,LA,ASSUMPTION,29.9924,-91.0553,440300,1132,22007,23395.571428571428,2.7,8.434789503829313,RETAIL PHARMACY,PAINCOURTVILLE PHARMACY INC.,112 HWY 403,PAINCOURTVILLE,70391,,PO BOX 420
AR3420166,LA,ASSUMPTION,29.9924,-91.0553,12100,40,22007,23395.571428571428,0.1,0.23169786621945757,RETAIL PHARMACY,RYBISKI G U AND CO LTD,1 BLK N OF PO,PAINCOURTVILLE,70391,,
FW0777459,LA,JEFFERSON,29.8617,-90.045,313200,1846,22051,432413.71428571426,0.1,0.32452500516193794,CHAIN PHARMACY,WAL-MART PHARMACY 10-5722,3265 MANHATTAN BLVD.,HARVEY,70058,,
FT0711576,LA,JEFFERSON,29.8725,-90.0463,16130,91,22051,432413.71428571426,0,0.016614933991523046,RETAIL PHARMACY,"TOTAL LIFE CARE RX PHARMACY, LLC",2731 MANHATTAN BLVD,HARVEY,70058,TLC RX,SUITE B17
AM9731274,LA,JEFFERSON,29.8564,-90.1043,3227060,7062,22051,432413.71428571426,1.1,3.344711627778242,RETAIL PHARMACY,MAJORIA DRUGS #5,2564 BARRATARIA BOULEVARD,MARRERO,70072,,
BW6718021,LA,JEFFERSON,29.8559,-90.1051,1682970,4829,22051,432413.71428571426,0.6,1.7442778519222948,CHAIN PHARMACY,"WALGREEN LOUISIANA CO., INC.",2570 BARATARIA BLVD,MARRERO,70072,DBA: WALGREENS # 05633,
BW9575296,LA,JEFFERSON,29.8737,-90.1109,162620,843,22051,432413.71428571426,0.1,0.16845034761711328,CHAIN PHARMACY,"WINN DIXIE MONTGOMERY, LLC.",WINN DIXIE PHARMACY # 1416,MARRERO,70072,,5969 LAPALCO BLVD
FL3218840,LA,JEFFERSON,29.8759,-90.0988,87700,268,22051,432413.71428571426,0,0.09079652012834803,CHAIN PHARMACY,"LOUISIANA CVS PHARMACY, L.L.C.",DBA CVS/PHARMACY # 5409,MARRERO,70072,,1950 BARATARIA BLVD.
BF9144495,LA,JEFFERSON,29.8758,-90.1027,116800,83,22051,432413.71428571426,0,0.12095837784221707,RETAIL PHARMACY,"FIRST DOSE PHARMACY, INC.",5128 LAPALCO BLVD,MARRERO,70072,,SUITE D
BW4788420,LA,JEFFERSON,29.8737,-90.1109,1000,5,22051,432413.71428571426,0,9.328409602227537e-4,CHAIN PHARMACY,WINN-DIXIE PHARMACY #1416,5969 LAPALCO BLVD,MARRERO,70072,,
BT7313771,LA,JEFFERSON DAVIS,30.2325,-92.8161,266100,1028,22053,31428.571428571428,1.2,3.7946605185744553,RETAIL PHARMACY,THRIFTY WAY PHARMACY,514 E. RUSSELL,WELSH,70591,,PO BOX 606
BO2155352,LA,JEFFERSON DAVIS,30.2367,-92.8224,202000,728,22053,31428.571428571428,0.9,2.8805516003435674,RETAIL PHARMACY,OSBORN'S CRESCENT DRUG STORE,110 W SOUTH ST.,WELSH,70591,,
FU0578762,LA,LAFAYETTE,30.2172,-92.0465,365300,760,22055,213874.42857142858,0.2,0.7654142811853771,RETAIL PHARMACY,UNIVERSITY MEDICAL CENTER -OUTPATIENT PHARMACY,2390 WEST CONGRESS ST,LAFAYETTE,70506,,
BW6733504,LA,LAFAYETTE,30.2726,-92.0088,2388420,3620,22055,213874.42857142858,1.6,5.005038247535497,CHAIN PHARMACY,"WALGREEN LOUISIANA CO., INC.",3747 MOSS STREET,LAFAYETTE,70507,DBA: WALGREENS # 05747,
BW9162695,LA,LAFAYETTE,30.2739,-92.0088,285770,2079,22055,213874.42857142858,0.2,0.5987522472754633,CHAIN PHARMACY,"WINN DIXIE MONTGOMERY, LLC.",WINN DIXIE PHARMACY # 1555,LAFAYETTE,70507,,3803-F MOSS ST
BW5506057,LA,AVOYELLES,31.0957,-92.0624,1814880,8161,22009,42004,6.2,19.365089020109334,CHAIN PHARMACY,WAL-MART PHARMACY 10-1128,7162 HWY 1,MANSURA,71350,,
AM9814066,LA,AVOYELLES,31.0585,-92.0489,443500,1598,22009,42004,1.5,4.732144735882775,RETAIL PHARMACY,MANSURA DRUG STORE,2043 LEGLISE STREET,MANSURA,71350,,
AH6858887,LA,AVOYELLES,31.0433,-92.1333,221650,1350,22009,42004,0.8,2.364953520132463,RETAIL PHARMACY,HESSMER PHARMACY,3658 HWY 115,HESSMER,71341,,PO BOX 7
BW7814026,LA,BOSSIER,32.533,-93.7065,4480100,7572,22015,113206.57142857143,5.7,17.7369152070236,CHAIN PHARMACY,"WALGREEN LOUISIANA CO., INC.",2107 AIRLINE DRIVE,BOSSIER CITY,71111,DBA: WALGREENS # 07004,
AK2494413,LA,BOSSIER,32.5292,-93.7081,232500,760,22015,113206.57142857143,0.3,0.9203795732593827,CHAIN PHARMACY,K & B LA CORP/RITE AID #7333,2925 EAST TEXAS STREET,BOSSIER CITY,71111,,
FD2363086,LA,BOSSIER,32.5345,-93.7094,14400,36,22015,113206.57142857143,0,0.05690692476988837,RETAIL PHARMACY,"DAVID RAINES COMMUNITY HEALTH CENTER, INC PHARMACY",ATTN: PHARMACY,BOSSIER CITY,71111,,1514 DOCTORS DRIVE
BC5276452,LA,BOSSIER,32.4604,-93.6634,843800,1462,22015,113206.57142857143,1.1,3.3405576109559805,CHAIN PHARMACY,"LOUISIANA CVS PHARMACY, L.L.C.",4890 BARKSDALE BLVD.,BOSSIER CITY,71112,DBA: CVS/PHARMACY  # 05396,
BE5276452,LA,BOSSIER,32.4604,-93.6634,467000,649,22015,113206.57142857143,0.6,1.8487809307595495,CHAIN PHARMACY,"LOUISIANA CVS PHARMACY, L.L.C.",4890 BARKSDALE BLVD.,BOSSIER CITY,71112,DBA: CVS/PHARMACY  # 05396,
FF3067471,LA,BOSSIER,32.5338,-93.5157,48700,191,22015,113206.57142857143,0.1,0.19270294422513667,RETAIL PHARMACY,FRED'S PHARMACY #2074,400 W. MCKINLEY AVE.,HAUGHTON,71037,,
BB6526872,LA,BOSSIER,32.6781,-93.745,889400,3028,22015,113206.57142857143,1.1,3.5210910945466316,CHAIN PHARMACY,BROOKSHIRE PHARMACY #17,6280 HWY 3,BENTON,71006,,
BF9945582,LA,BOSSIER,32.6305,-93.7426,604700,2241,22015,113206.57142857143,0.8,2.3939445423918437,RETAIL PHARMACY,FRED'S PHARMACY # 1534,5604 HWY 3,BENTON,71006,,
BW9689021,LA,BOSSIER,32.5662,-93.7111,1178360,3299,22015,113206.57142857143,1.5,4.665103274773703,CHAIN PHARMACY,"WALGREEN LOUISIANA CO., INC.",3400 AIRLINE DR,BOSSIER CITY,71111,DBA: WALGREENS # 09998,
FT0377920,LA,BOSSIER,32.5587,-93.7065,505060,1571,22015,113206.57142857143,0.6,1.9994630444757813,CHAIN PHARMACY,TARGET STORES A DIV. OF TARGET CORP.,TARGET STORE T-2273,BOSSIER CITY,71111,ATTN PHARMACY,2735 BEENE BLVD
FW2005103,LA,BOSSIER,32.5754,-93.7136,160370,351,22015,113206.57142857143,0.2,0.6348120256411012,RETAIL PHARMACY,WELLCARE PHARMACY & HOME INFUSION,4160 AIRLINE DR,BOSSIER CITY,71111,,
AD2692196,LA,BOSSIER,32.5754,-93.7136,17650,60,22015,113206.57142857143,0,0.06977389454334484,RETAIL PHARMACY,DENMON'S LOUISIANA PHARMACY,4160 AIRLINE DRIVE,BOSSIER CITY,71111,,
FS2531437,LA,CADDO,32.4974,-93.7468,1708350,1596,22017,252980.2857142857,1,3.0264942802096897,RETAIL PHARMACY,SPECIALISTS PHARMACY,1500 LINE AVENUE,SHREVEPORT,71101,,SUITE 104B
BL5799044,LA,CADDO,32.4933,-93.7465,830180,2994,22017,252980.2857142857,0.5,1.4706845787491036,RETAIL PHARMACY,LINE AVENUE PHARMACY INC,1822 LINE AVENUE,SHREVEPORT,71101,,
BS5523178,LA,CADDO,32.4946,-93.7501,233645,1208,22017,252980.2857142857,0.1,0.4138334676193788,RETAIL PHARMACY,CHRISTUS SCHUMPERT APOTHECARY,ONE SAINT MARY PLACE,SHREVEPORT,71101,,
BB4560454,LA,CADDO,32.4824,-93.7406,964200,4560,22017,252980.2857142857,0.5,1.7081210844253938,CHAIN PHARMACY,BROOKSHIRE PHARMACY,510 KINGS HIGHWAY,SHREVEPORT,71104,,
BW6961278,LA,CADDO,32.4808,-93.7464,2193000,4764,22017,252980.2857142857,1.2,3.8851243539002884,CHAIN PHARMACY,"WALGREEN LOUISIANA CO., INC.",3124 LINE AVE,SHREVEPORT,71104,DBA: WALGREENS # 05992,
BO3569627,LA,CADDO,32.4569,-93.8055,1313700,897,22017,252980.2857142857,0.7,2.3273126881700845,RETAIL PHARMACY,OUTREACH PHARMACY,4140 HOLLYWOOD STE B,SHREVEPORT,71109,,
AK2361892,LA,CADDO,32.4039,-93.8008,1392200,3375,22017,252980.2857142857,0.8,2.4663871971656732,CHAIN PHARMACY,KROGER PHARMACY #427,9155 MANSFIELD ROAD,SHREVEPORT,71118,,
BS9092711,LA,CADDO,32.4028,-93.7968,50180,379,22017,252980.2857142857,0,0.08879773777382904,RETAIL PHARMACY,SOUTH SHREVEPORT PHARMACY,2520 BERT KOUNS,SHREVEPORT,71118,,SUITE 103
BC7691199,LA,CADDO,32.4032,-93.8002,2000,15,22017,252980.2857142857,0,0.0034396505966639884,RETAIL PHARMACY,COMPLETE VITAL CARE,2530 BERT KOUNS,SHREVEPORT,71118,OF SHREVEPORT,SUITE 116
BK2824919,LA,CALCASIEU,30.2036,-93.2182,834540,2302,22019,188386.85714285713,0.6,1.985356222935054,CHAIN PHARMACY,K & B LOUISIANA CORPORATION,2825 RYAN STREET,LAKE CHARLES,70601,RITE AID #7307,
BB7100441,LA,CALCASIEU,30.1979,-93.2164,124220,508,22019,188386.85714285713,0.1,0.29542901006357014,RETAIL PHARMACY,BOUDREAUX'S NEW DRUG STORE,404 EAST PRIEN LAKE RD,LAKE CHARLES,70601,,
AK3365625,LA,CALCASIEU,30.2124,-93.2128,559300,2231,22019,188386.85714285713,0.4,1.3305308399094493,CHAIN PHARMACY,KROGER CO,600 12TH ST,LAKE CHARLES,70601,,
BW5580685,LA,CALCASIEU,30.1955,-93.1762,2136170,9088,22019,188386.85714285713,1.6,5.082073136565404,CHAIN PHARMACY,WAL-MART PHARMACY 10-0469,3415 US 14,LAKE CHARLES,70607,,
FL0355811,LA,CALCASIEU,30.3022,-93.2012,1133400,2699,22019,188386.85714285713,0.9,2.6963761109274684,CHAIN PHARMACY,"LOUISIANA CVS PHARMACY, L.L.C.",366 SAM HOUSTON JONES PKWY,LAKE CHARLES,70611,DBA: CVS/PHARMACY  # 05455,
BT7427809,LA,CALCASIEU,30.3007,-93.2112,666280,1962,22019,188386.85714285713,0.5,1.5850476960207676,RETAIL PHARMACY,THE DRUG STORE LLC,857 SAM HOUSTON JONES PARKWAY,LAKE CHARLES,70611,,
BE5312753,LA,CALCASIEU,30.3022,-93.2012,337800,814,22019,188386.85714285713,0.3,0.8035586616643858,CHAIN PHARMACY,"LOUISIANA CVS PHARMACY, L.L.C.",366 SAM HOUSTON JONES PKWY,LAKE CHARLES,70611,DBA: CVS/PHARMACY  # 05455,
BC5312753,LA,CALCASIEU,30.3022,-93.2012,118900,395,22019,188386.85714285713,0.1,0.28277216135809047,CHAIN PHARMACY,"LOUISIANA CVS PHARMACY, L.L.C.",366 SAM HOUSTON JONES PKWY,LAKE CHARLES,70611,DBA: CVS/PHARMACY  # 05455,
AC4748933,LA,CALCASIEU,30.248,-93.2573,867600,2673,22019,188386.85714285713,0.7,2.0640094970333918,RETAIL PHARMACY,CARAWAY'S PHARMACY INC,820 MCKINLEY ST,WESTLAKE,70669,,
BH5058727,LA,CALCASIEU,30.2449,-93.2576,395300,1363,22019,188386.85714285713,0.3,0.940357308387145,RETAIL PHARMACY,HEALTH WISE PHARMACY,916-A SAMPSON STREET,WESTLAKE,70669,,
FC2275178,LA,CALCASIEU,30.248,-93.2573,452580,1051,22019,188386.85714285713,0.3,1.0766325515920085,RETAIL PHARMACY,CARAWAY PHARMACY,820 MCKINLEY ST,WESTLAKE,70669,ST FRANCIS BUSINESS LLC,
AP3407029,LA,CALCASIEU,30.2369,-93.3789,637160,1697,22019,188386.85714285713,0.5,1.5157681031065633,RETAIL PHARMACY,PARAGON DRUG STORE,210 G WEST NAPOLEON,SULPHUR,70663,,
BF5811179,LA,CALDWELL,32.0718,-92.0942,1430800,7043,22021,10214.42857142857,20,62.78106750446331,RETAIL PHARMACY,FRED'S PHARMACY,8155 US HWY 165,COLUMBIA,71418,,
BJ4024131,LA,CALDWELL,32.0912,-92.0897,2174320,4093,22021,10214.42857142857,30.4,95.40551283296466,RETAIL PHARMACY,J AND K DRUG,7190 HWY 165 SOUTH,COLUMBIA,71418,,P.O. BOX 1209
AC7538448,LA,CLAIBORNE,32.7916,-93.0558,1282920,2590,22027,17011.428571428572,10.8,33.800413648057386,RETAIL PHARMACY,CLAIBORNE DRUG CO,511 W. MAIN,HOMER,71040,,
BB6458269,LA,CLAIBORNE,32.8014,-93.055,1219100,3050,22027,17011.428571428572,10.2,32.11897675885313,CHAIN PHARMACY,BROOKSHIRE PHARMACY,817 WEST MAIN,HOMER,71040,,
FF1692373,LA,CLAIBORNE,32.8039,-93.0536,1074280,1586,22027,17011.428571428572,9,28.303469233084407,RETAIL PHARMACY,FRED'S PHARMACY # 1999,902 WEST MAIN STREET,HOMER,71040,,
FN2859885,LA,CLAIBORNE,32.8017,-93.0562,260750,555,22027,17011.428571428572,2.2,6.869759542167205,RETAIL PHARMACY,"NORTH LOUISIANA PHARMACEUTICAL COMPANY, INC.",833 WEST MAIN STREET,HOMER,71040,DBA CLAIBORNE PHARMACY,
BW5506095,LA,CONCORDIA,31.5774,-91.4624,1202200,5687,22029,20243,8.5,26.61734383249941,CHAIN PHARMACY,WAL-MART PHARMACY 10-1106,4283 CARTER STREET,VIDALIA,71373,,
BR5129590,LA,CONCORDIA,31.5671,-91.4278,965750,2764,22029,20243,6.8,21.382195390476877,RETAIL PHARMACY,REEVES DRUG STORE,307 CARTER STREET,VIDALIA,71373,,
BV3375828,LA,DE SOTO,32.0373,-93.7052,1376260,4009,22031,26453.85714285714,7.4,23.317077193294324,RETAIL PHARMACY,VALENTINE PHARMACY,PO BOX 1619,MANSFIELD,71052,,116 JEFFERSON STREET
BM4704676,LA,DE SOTO,32.0349,-93.7096,858870,2323,22031,26453.85714285714,4.6,14.55123629405118,RETAIL PHARMACY,MANSFIELD DRUG CO,132 JEFFERSON STREET,MANSFIELD,71052,,PO BOX 1329
BB5831195,LA,DE SOTO,32.0384,-93.697,511800,3319,22031,26453.85714285714,2.8,8.671029098511413,CHAIN PHARMACY,BROOKSHIRE PHARMACY,1117 POLK STREET,MANSFIELD,71052,,
BW5546215,LA,DE SOTO,32.0527,-93.6825,422600,2695,22031,26453.85714285714,2.3,7.159764852560606,CHAIN PHARMACY,WAL-MART PHARMACY 10-0323,7292 HWY #509,MANSFIELD,71052,,
FA2902244,LA,EAST BATON ROUGE,30.464,-91.1396,113100,212,22033,434462.71428571426,0,0.11657050248431253,RETAIL PHARMACY,AFFORDABLE PHARMACY,1718 NORTH FOSTER DR,BATON ROUGE,70806,,
BC5276262,LA,EAST BATON ROUGE,30.4435,-91.1547,1170900,1888,22033,434462.71428571426,0.4,1.2077987733546098,CHAIN PHARMACY,"LOUISIANA CVS PHARMACY, L.L.C.",3384 GOVERNMENT ST,BATON ROUGE,70806,DBA: CVS/PHARMACY  # 05324,
BE5276262,LA,EAST BATON ROUGE,30.4435,-91.1547,544100,788,22033,434462.71428571426,0.2,0.5611908321733826,CHAIN PHARMACY,"LOUISIANA CVS PHARMACY, L.L.C.",3384 GOVERNMENT ST,BATON ROUGE,70806,DBA: CVS/PHARMACY  # 05324,
FL2894930,LA,EAST BATON ROUGE,30.4496,-91.1551,72800,151,22033,434462.71428571426,0,0.07499695425584496,RETAIL PHARMACY,LANDRY COLHAM LLC DBA BRENT'S PHARMACY,243 NORTH ACADIAN THRUWAY STE. #1,BATON ROUGE,70806,,
BC3728702,LA,EAST BATON ROUGE,30.5294,-91.1792,90690,327,22033,434462.71428571426,0,0.09345230854386694,RETAIL PHARMACY,COMMUNITY PHARMACY,9136 SCOTLAND AVE,BATON ROUGE,70807,,
BN7339535,LA,EAST BATON ROUGE,30.4619,-91.0428,705330,1317,22033,434462.71428571426,0.2,0.7275159731380432,RETAIL PHARMACY,N&T PHARMACY,1124 MARQUE ANN DRIVE,BATON ROUGE,70815,,SUITE B
BW3620639,LA,EAST BATON ROUGE,30.4106,-91.0509,5269190,9075,22033,434462.71428571426,1.7,5.435601675817297,CHAIN PHARMACY,"WALGREEN LOUISIANA CO., INC.",4747 S SHERWOOD FOREST,BATON ROUGE,70816,DBA: WALGREENS # 02980,
BM8788664,LA,EAST BATON ROUGE,30.4066,-91.0179,3290200,4015,22033,434462.71428571426,1.1,3.3940722413593574,RETAIL PHARMACY,MESSINA'S PHARMACY,15046 MARKET ST,BATON ROUGE,70817,"MESSINA, GERLANDO J",
BW3827500,LA,EAST BATON ROUGE,30.4083,-91.0168,1786600,4541,22033,434462.71428571426,0.6,1.8429559357433813,CHAIN PHARMACY,"WALGREEN LOUISIANA CO., INC.",14444 COURSEY BLVD.,BATON ROUGE,70817,DBA: WALGREENS # 03085,
FR1221554,LA,EAST BATON ROUGE,30.3932,-91.0199,235960,516,22033,434462.71428571426,0.1,0.24331308648802277,RETAIL PHARMACY,RALPH'S PHARMACY #2,6576 JONES CREEK RD,BATON ROUGE,70817,,
BW9163142,LA,EAST BATON ROUGE,30.4081,-91.0348,303500,2233,22033,434462.71428571426,0.1,0.312987464834194,CHAIN PHARMACY,"WINN DIXIE MONTGOMERY, LLC.",WINN DIXIE PHARMACY # 1577,BATON ROUGE,70816,,13002 COURSEY BLVD
BC5286655,LA,EAST BATON ROUGE,30.4116,-91.0509,788500,1905,22033,434462.71428571426,0.3,0.8133142859460244,CHAIN PHARMACY,"LOUISIANA CVS PHARMACY, L.L.C.",11705 COURSEY BLVD.,BATON ROUGE,70816,DBA: CVS/PHARMACY  # 05510,
BE5286655,LA,EAST BATON ROUGE,30.4116,-91.0509,428900,775,22033,434462.71428571426,0.1,0.44235031713816014,CHAIN PHARMACY,"LOUISIANA CVS PHARMACY, L.L.C.",11705 COURSEY BLVD.,BATON ROUGE,70816,DBA: CVS/PHARMACY  # 05510,
BM7522837,LA,EAST BATON ROUGE,30.3936,-91.1068,3433820,4101,22033,434462.71428571426,1.1,3.54223087651004,RETAIL PHARMACY,MCGEE'S PHARMACY,7731 PERKINS ROAD,BATON ROUGE,70810,,SUITE 135
BP9172672,LA,EAST BATON ROUGE,30.3766,-91.101,1744760,3380,22033,434462.71428571426,0.6,1.799793720907672,RETAIL PHARMACY,PRESCRIPTIONS PLUS & GIFTS,8080 BLUEBONNET BLVD,BATON ROUGE,70810,,SUITE 2000
AK2124775,LA,EAST BATON ROUGE,30.3674,-91.0744,881570,2418,22033,434462.71428571426,0.3,0.9093254555148452,CHAIN PHARMACY,K & B LOUISIANA CORPORATION,9031 SIEGEN LANE,BATON ROUGE,70810,RITE AID #7319,
BC9099602,LA,EAST BATON ROUGE,30.3931,-91.1595,1059200,2245,22033,434462.71428571426,0.3,1.092568864244937,CHAIN PHARMACY,"LOUISIANA CVS PHARMACY, L.L.C.","5360 HIGHLAND RD.,",BATON ROUGE,70808,DBA: CVS/PHARMACY  # 08309,
BW8928713,LA,EAST BATON ROUGE,30.3546,-91.1093,1698260,4270,22033,434462.71428571426,0.6,1.7518242421825172,CHAIN PHARMACY,"WALGREEN LOUISIANA CO., INC.",9983 BLUEBONNET BLVD,BATON ROUGE,70810,DBA: WALGREENS # 07083,
BC5289839,LA,EAST BATON ROUGE,30.5426,-91.0295,1448500,2504,22033,434462.71428571426,0.5,1.4941714033353193,CHAIN PHARMACY,"LOUISIANA CVS PHARMACY, L.L.C.",14360 WAX ROAD,BATON ROUGE,70818,DBA: CVS/PHARMACY  # 05374,
BW8536952,LA,EAST BATON ROUGE,30.5117,-91.0305,1399000,3163,22033,434462.71428571426,0.5,1.4431071195311223,CHAIN PHARMACY,"WALGREEN LOUISIANA CO., INC.",6515 SULLIVAN RD,GREENWELL SPRINGS,70739,DBA: WALGREENS # 07795,
BW9162544,LA,EAST BATON ROUGE,30.5465,-91.0516,512570,3173,22033,434462.71428571426,0.2,0.5286644307926484,CHAIN PHARMACY,"WINN DIXIE MONTGOMERY, LLC.",WINN DIXIE PHARMACY # 1576,BATON ROUGE,70818,,10974 JOOR RD
BE5289839,LA,EAST BATON ROUGE,30.5426,-91.0295,444600,697,22033,434462.71428571426,0.1,0.4585464637184811,CHAIN PHARMACY,"LOUISIANA CVS PHARMACY, L.L.C.",14360 WAX ROAD,BATON ROUGE,70818,DBA: CVS/PHARMACY  # 05374,
BW9568506,LA,EAST BATON ROUGE,30.4477,-91.033,555450,3815,22033,434462.71428571426,0.2,0.5728995113890923,CHAIN PHARMACY,"WINN DIXIE MONTGOMERY, LLC.",WINN DIXIE PHARMACY # 1467,BATON ROUGE,70816,,13555 OLD HAMMOND HWY
BW3865067,LA,EAST BATON ROUGE,30.4477,-91.033,4600,35,22033,434462.71428571426,0,0.004641718792284478,CHAIN PHARMACY,"WINN DIXIE PHARMACY, #1467",13555 OLD HAMMOND HIGHWAY,BATON ROUGE,70816,,
FW0587507,LA,EAST BATON ROUGE,30.3594,-91.0071,1141620,2700,22033,434462.71428571426,0.4,1.1775934757831574,CHAIN PHARMACY,"WALGREEN LOUISIANA CO., INC.",15929 AIRLINE HWY,BATON ROUGE,70817,DBA: WALGREENS #09518,
AL3402283,LA,EAST CARROLL,32.806,-91.1724,665540,1058,22035,8007.142857142857,11.9,37.25288694655991,RETAIL PHARMACY,LOUIS LEONARD MINSKY INC,DBA MINSKYS DRUG STORE,LAKE PROVIDENCE,71254,,405 LAKE ST
AC3420534,LA,EAST CARROLL,32.806,-91.1725,261320,367,22035,8007.142857142857,4.7,14.627043483303845,RETAIL PHARMACY,CHAPMAN'S DRUG,CHAPMAN L W,LAKE PROVIDENCE,71254,,407 LAKE ST
BM6195956,LA,EAST CARROLL,32.8089,-91.1711,171720,515,22035,8007.142857142857,3.1,9.611765727854479,RETAIL PHARMACY,M & S SUPER DRUGS,303 NORTH HOOD STREET,LAKE PROVIDENCE,71254,,
AB6220850,LA,EVANGELINE,30.6987,-92.2848,2321460,2551,22039,34594.142857142855,9.6,30.076111837457965,RETAIL PHARMACY,BLAKE'S FAMILY PHARMACY,512 MCARTHUR DRIVE,VILLE PLATTE,70586,,PO BOX 348
AE7223833,LA,EVANGELINE,30.6946,-92.2911,256320,555,22039,34594.142857142855,1.1,3.3207097845711284,RETAIL PHARMACY,EASTIN PHARMACY,1535 W. MAIN ST. SUITE #2,VILLE PLATTE,70586,"EASTIN PHARMACY, INC",PO BOX 278
FE3074628,LA,EVANGELINE,30.6946,-92.2911,60100,77,22039,34594.142857142855,0.2,0.7785358928168385,RETAIL PHARMACY,EASTINS PHARMACY,1535 W MAIN ST SUITE #2,VILLE PLATTE,70586,,
BM8470510,LA,GRANT,31.6656,-92.8911,833900,2055,22043,21337.85714285714,5.6,17.515605617037934,RETAIL PHARMACY,MONTGOMERY PHARMACY LLC,1101 CADDO ST.,MONTGOMERY,71454,,P.O. BOX 36
AL5541607,LA,IBERIA,29.9242,-91.7814,291000,943,22045,73613.85714285714,0.6,1.771628118638994,RETAIL PHARMACY,LYDIA PHARMACY,PO BOX 435,LYDIA,70569,ARCHIE O CHAUVIN,3917 DARNALLE RD
AM5075052,LA,JACKSON,32.2412,-92.7149,44000,169,22049,15932.42857142857,0.4,1.237652959318641,RETAIL PHARMACY,MURPHY-NASH INC PHARMACY,200 JIMMIE DAVIS BLVD,JONESBORO,71251,,
BS6841755,LA,JACKSON,32.2541,-92.7209,1195110,3253,22049,15932.42857142857,10.7,33.61933499105917,RETAIL PHARMACY,STEWART-JOHNSTON,DBA: FAMILY PHARMACY,JONESBORO,71251,,500 ALEXANDER STREET
BO7334559,LA,JEFFERSON,30.0062,-90.1649,1105,17,22051,432413.71428571426,0,0.001041672405582075,RETAIL PHARMACY,ONCOLOGYRX,3440 DIVISION STREET,METAIRIE,70002,,SUITE I
BC5312981,LA,JEFFERSON,30.0218,-90.2565,1465200,2606,22051,432413.71428571426,0.5,1.5185614342470626,CHAIN PHARMACY,"LOUISIANA CVS PHARMACY, L.L.C.",820 W. ESPLANADE AVE.,KENNER,70065,DBA: CVS/PHARMACY  # 05349,
BE5312981,LA,JEFFERSON,30.0218,-90.2565,647500,1186,22051,432413.71428571426,0.2,0.6710235973869008,CHAIN PHARMACY,"LOUISIANA CVS PHARMACY, L.L.C.",820 W. ESPLANADE AVE.,KENNER,70065,DBA: CVS/PHARMACY  # 05349,
BT6510083,LA,JEFFERSON,30.0222,-90.2532,66500,256,22051,432413.71428571426,0,0.06882293306532317,CHAIN PHARMACY,THE GREAT ATLANTIC & PACIFIC,SAV-A-CENTER PHARMACY,KENNER,70065,"TEA CO., INC.",1000 W. ESPLANADE AVENUE
BT3153400,LA,JEFFERSON,30.0052,-90.1978,3377740,5624,22051,432413.71428571426,1.1,3.500889934318647,RETAIL PHARMACY,PATIO DRUGS,5208 VETERANS BLVD,METAIRIE,70006,,
BK4008555,LA,JEFFERSON,30.0049,-90.1935,1112620,3433,22051,432413.71428571426,0.4,1.15311580563002,CHAIN PHARMACY,K & B LOUISIANA CORPORATION,4936 VETERANS MEMORIAL BLVD.,METAIRIE,70006,RITE AID #7239,
BP6656687,LA,JEFFERSON,30.0057,-90.1976,1041820,2656,22051,432413.71428571426,0.3,1.0797323167591633,RETAIL PHARMACY,PATIO DRUGS HOME CARE PHCY,5204 VETERANS BLVD,METAIRIE,70006,,
FL0998596,LA,JEFFERSON,30.0054,-90.2002,631400,1494,22051,432413.71428571426,0.2,0.6543361090984715,CHAIN PHARMACY,"LOUISIANA CVS PHARMACY, L.L.C.",5300 VETERANS MEMORIAL BLVD.,METAIRIE,70003,DBA: CVS/PHARMACY  # 01017,
FE1022552,LA,JEFFERSON,30.0057,-90.1976,100,1,22051,432413.71428571426,0,0,RETAIL PHARMACY,PATIO DRUGS EXTENDED CARE PHARMACY,5204 VETERANS BLVD,METAIRIE,70006,,
FL2186369,LA,JEFFERSON,29.9938,-90.1709,541800,1108,22051,432413.71428571426,0.2,0.5614666090585174,CHAIN PHARMACY,"LOUISIANA CVS PHARMACY, L.L.C.",2105 CLEARY AVE.,METAIRIE,70001,DBA: CVS/PHARMACY  # 08999,
BC5312741,LA,JEFFERSON,29.9759,-90.1752,696400,1734,22051,432413.71428571426,0.2,0.7217079562256704,CHAIN PHARMACY,"LOUISIANA CVS PHARMACY, L.L.C.",4301 AIRLINE DRIVE,METAIRIE,70001,DBA: CVS/PHARMACY  # 05441,
BE5312741,LA,JEFFERSON,29.9759,-90.1752,333900,881,22051,432413.71428571426,0.1,0.3459803472470613,CHAIN PHARMACY,"LOUISIANA CVS PHARMACY, L.L.C.",4301 AIRLINE DRIVE,METAIRIE,70001,DBA: CVS/PHARMACY  # 05441,
BW9013878,LA,JEFFERSON,29.9839,-90.2127,2509060,5688,22051,432413.71428571426,0.8,2.600511839511644,CHAIN PHARMACY,"WALGREEN LOUISIANA CO., INC.",909 DAVID DRIVE,METAIRIE,70003,DBA: WALGREENS # 06672,
AK5467192,LA,JEFFERSON,29.9781,-90.2045,785810,2470,22051,432413.71428571426,0.3,0.814380523174022,CHAIN PHARMACY,K & B LOUISIANA CORPORATION,6425 AIRLINE DRIVE,METAIRIE,70003,RITE AID #7234,
BW9187407,LA,JEFFERSON,29.9781,-90.1974,364550,2095,22051,432413.71428571426,0.1,0.3777487643924251,CHAIN PHARMACY,"WINN DIXIE MONTGOMERY, LLC.",WINN DIXIE PHARMACY # 1411,METAIRIE,70003,,5901 AIRLINE DR
BC7441948,LA,ACADIA,30.3956,-92.2089,1438590,3368,22001,60885,3.4,10.589782328362864,RETAIL PHARMACY,COMMUNITY PHARMACY,731 SOUTH MAIN STREET SUITE-B,CHURCH POINT,70525,,P.O. BOX 130
AT4646812,LA,ACADIA,30.404,-92.2159,1225450,3255,22001,60885,2.9,9.020795822677313,RETAIL PHARMACY,THRIFTY-WAY PHARMACY,209 S MAIN ST,CHURCH POINT,70525,THRIFTY WAY PHARMACY,
BC9585398,LA,ACADIA,30.4073,-92.2183,732537,2202,22001,60885,1.7,5.392317613627004,RETAIL PHARMACY,CHURCH POINT PHARMACY,300 N MAIN ST,CHURCH POINT,70525,,
FF1028617,LA,ACADIA,30.3939,-92.2084,201100,951,22001,60885,0.5,1.4802528598406992,RETAIL PHARMACY,FRED'S PHARMACY #1684,821 SOUTH MAIN STREET,CHURCH POINT,70525,,
BC7714036,LA,ACADIA,30.4073,-92.2183,17500,49,22001,60885,0,0.12871902084347933,RETAIL PHARMACY,CHURCH POINT PHARMACY LLC,300 N MAIN STREET,CHURCH POINT,70525,,
FL1555981,LA,JEFFERSON,29.8817,-90.0206,400800,943,22051,432413.71428571426,0.1,0.415321525290286,CHAIN PHARMACY,"LOUISIANA CVS PHARMACY, L.L.C.",2831 BELLE CHASE HWY.,TERRYTOWN,70056,DBA: CVS/PHARMACY  # 08921,
BT8834699,LA,JEFFERSON,29.8821,-90.0194,75100,388,22051,432413.71428571426,0,0.07773674668522948,CHAIN PHARMACY,THE GREAT ATLANTIC AND,SAV-A-CENTER PHARMACY #084,GRETNA,70056,"PACIFIC TEA CO, INC.",2851 BELLE CHASE HWY
BB0359895,LA,JEFFERSON,29.8917,-90.0367,4857290,2145,22051,432413.71428571426,1.6,5.034428648427064,RETAIL PHARMACY,BELLEMEADE DISCOUNT DRUGS,119 BELLEMEADE BLVD,GRETNA,70056,,
AW3417183,LA,JEFFERSON,29.892,-90.0595,924400,3032,22051,432413.71428571426,0.3,0.9580276661487681,CHAIN PHARMACY,"WALGREEN LOUISIANA CO., INC.",1544 MANHATTAN BLVD,HARVEY,70058,DBA: WALGREENS # 06637,
BW6631433,LA,JEFFERSON,29.8956,-90.0575,580200,3026,22051,432413.71428571426,0.2,0.6012678233613549,CHAIN PHARMACY,WAL-MART PHARMACY 10-2706,1501 MANHATTAN BLVD,HARVEY,70058,,
FM1730844,LA,JEFFERSON,29.9026,-90.065,53600,163,22051,432413.71428571426,0,0.0554522126354637,RETAIL PHARMACY,MANHATTAN DISCOUNT DRUGS,851 MANHATTAN BLVD SUITE B,HARVEY,70058,MANHATTAN DISCOUNT DRUGS,
BS6990469,LA,JEFFERSON,29.8934,-90.0569,258000,1699,22051,432413.71428571426,0.1,0.26731075960160905,CHAIN PHARMACY,SAM'S PHARMACY 10-8221,1527 MANHATTAN BLVD.,HARVEY,70058,,
BF0636451,LA,JEFFERSON,29.9051,-90.0925,4847290,6386,22051,432413.71428571426,1.6,5.0240637488690325,RETAIL PHARMACY,FOLSE PHARMACY,4000 FOURTH ST,MARRERO,70072,,
BW6772900,LA,JEFFERSON,29.8958,-90.097,2669200,6388,22051,432413.71428571426,0.9,2.7664953410339463,CHAIN PHARMACY,"WALGREEN LOUISIANA CO., INC.",4600 WESTBANK EXPRESSWAY,MARRERO,70072,DBA: WALGREENS # 05516,
BS9116155,LA,JEFFERSON,29.9051,-90.0925,77430,248,22051,432413.71428571426,0,0.08015176828225061,RETAIL PHARMACY,ST MARGARET'S PHARMACY SERVICES,4000 FOURTH ST,MARRERO,70072,,SUITE B
BD5662386,LA,JEFFERSON,29.8883,-90.1002,11087500,12638,22051,432413.71428571426,3.7,11.491978735970845,RETAIL PHARMACY,DAVE'S PHARMACY,1220 BARATARIA BLVD,MARRERO,70072,,
BW6550330,LA,JEFFERSON,29.8974,-90.1446,1915100,4984,22051,432413.71428571426,0.6,1.9848782653628592,CHAIN PHARMACY,"WALGREEN LOUISIANA CO., INC.",818 WESTBANK EXPY,WESTWEGO,70094,DBA: WALGREENS # 05230,
BM7516404,LA,JEFFERSON,29.898,-90.1457,299000,679,22051,432413.71428571426,0.1,0.3098068477895345,RETAIL PHARMACY,MD PHARMACY INC,712 WESTBANK EXPWY,WESTWEGO,70094,,
AK6214542,LA,JEFFERSON,29.8969,-90.1421,304000,1035,22051,432413.71428571426,0.1,0.3149892975685498,CHAIN PHARMACY,K & B LOUISIANA CORP,WESTWOOD SHOPPING CENTER,WESTWEGO,70094,RITE AID #7253,1082 WESTBANK EXPRESWWAY
BR9523336,LA,JEFFERSON,29.9199,-90.2105,1096700,308,22051,432413.71428571426,0.4,1.1366148855336353,RETAIL PHARMACY,RIVER ROAD DISCOUNT PHARMACY LLC,6243 RIVER RD,AVONDALE,70094,,SUITE D
BN7185386,LA,LAFAYETTE,30.2605,-92.0063,7419750,4031,22055,213874.42857142858,5,15.54862797558739,RETAIL PHARMACY,NORTHSIDE PHARMACY LLC,2930 MOSS ST STE A,LAFAYETTE,70501,,
FT0693867,LA,LAFAYETTE,30.2656,-91.9964,99290,339,22055,213874.42857142858,0.1,0.20796718398462025,CHAIN PHARMACY,TARGET STORES A DIV. OF TARGET CORP.,TARGET STORE T-2377,LAFAYETTE,70501,ATTN PHARMACY,3225 LOUISIANA AVE
FA0848462,LA,LAFAYETTE,30.1745,-92.0265,2645320,4893,22055,213874.42857142858,1.8,5.543394547189174,RETAIL PHARMACY,APC PHARMACEUTICALS,1103 KALISTE SALOOM ROAD,LAFAYETTE,70508,,SUITE 304
BW6675562,LA,LAFAYETTE,30.1565,-92.0475,2332030,4845,22055,213874.42857142858,1.6,4.886868096747366,CHAIN PHARMACY,"WALGREEN LOUISIANA CO., INC.",2517 KALISTE SALOOM ROAD,LAFAYETTE,70508,DBA: WALGREENS # 04626,
FF1555246,LA,LAFAYETTE,30.1745,-92.0265,1867000,2107,22055,213874.42857142858,1.2,3.912357275307315,RETAIL PHARMACY,"FALCON PHARMACY, LLC",1103 KALISTE SALOOM RD SUITE 103,LAFAYETTE,70508,,
BW6942038,LA,LAFAYETTE,30.1783,-92.0054,1294960,5668,22055,213874.42857142858,0.9,2.7135976892664853,CHAIN PHARMACY,WAL-MART PHARMACY 10-2938,2428 WEST PINHOOK ROAD,LAFAYETTE (S),70508,,
BF9207425,LA,LAFAYETTE,30.1057,-91.9911,694400,1912,22055,213874.42857142858,0.5,1.4550719620574086,RETAIL PHARMACY,FARMER'S DRUGS,601 LAFAYETTE ST,YOUNGSVILLE,70592,,
FL1851345,LA,LAFAYETTE,30.1087,-92.0138,173500,538,22055,213874.42857142858,0.1,0.3634806950679185,CHAIN PHARMACY,"LOUISIANA CVS PHARMACY, L.L.C.",2910 E. MILTON AVE,YOUNGSVILLE,70592,DBA: CVS/PHARMACY  # 00016,
FW2300402,LA,LAFAYETTE,30.1086,-92.0164,161700,396,22055,213874.42857142858,0.1,0.3387527684976056,CHAIN PHARMACY,"WALGREEN LOUISIANA CO., INC.",2820 E. MILTON AVE.,YOUNGSVILLE,70592,DBA:  WALGREENS #13761,
FL2101474,LA,LAFAYETTE,30.2,-92.0167,186800,594,22055,213874.42857142858,0.1,0.39135200213445764,CHAIN PHARMACY,"LOUISIANA CVS PHARMACY, L.L.C.",1326 W. PINHOOK RD.,LAFAYETTE,70503,DBA: CVS/PHARMACY  # 08957,
BC6939346,LA,LAFAYETTE,30.2013,-92.0167,13260,81,22055,213874.42857142858,0,0.027683834591059428,RETAIL PHARMACY,CARMICHAEL'S PHARMACY,1472 SOUTH COLLEGE ROAD,LAFAYETTE,70503,,STE 102
FC1094185,LA,LAFAYETTE,30.2013,-92.0167,400,3,22055,213874.42857142858,0,7.345858034133512e-4,RETAIL PHARMACY,CARMICHAEL'S PHARMACY,1472 SOUTH COLLEGE RD #102B,LAFAYETTE,70503,,
FC1095113,LA,LAFAYETTE,30.2013,-92.0167,64150,254,22055,213874.42857142858,0,0.13432825689302746,RETAIL PHARMACY,CARMICHAEL'S PHARMACY,1472 SOUTH COLLEGE RD #102A,LAFAYETTE,70503,,
BW5705352,LA,SAINT TAMMANY,30.4752,-90.0862,3419000,7846,22103,228431.14285714287,2.1,6.70813254534964,CHAIN PHARMACY,"WALGREEN LOUISIANA CO., INC.",1203 BUSINESS HIGHWAY 190,COVINGTON,70433,DBA: WALGREENS # 03990,
AW1863631,LA,SAINT TAMMANY,30.472,-90.0863,2629660,6978,22103,228431.14285714287,1.6,5.159410943230759,CHAIN PHARMACY,"WALGREEN LOUISIANA CO., INC.",2880 HIGHWAY 190,MANDEVILLE,70471,DBA: WALGREENS # 03440,
BC5289865,LA,SAINT TAMMANY,30.4723,-90.0866,1194200,2721,22103,228431.14285714287,0.7,2.342972005665742,CHAIN PHARMACY,"LOUISIANA CVS PHARMACY, L.L.C.",2915 HWY 190,MANDEVILLE,70471,DBA: CVS/PHARMACY  # 05435,
FM1190040,LA,SAINT TAMMANY,30.4743,-90.0842,792240,2477,22103,228431.14285714287,0.5,1.5543078873039393,RETAIL PHARMACY,MEDIC SHOP PHARMACY,1000 BUSINESS 190,COVINGTON,70433,,STE 4
BE5289865,LA,SAINT TAMMANY,30.4723,-90.0866,575200,1221,22103,228431.14285714287,0.4,1.1284653650399186,CHAIN PHARMACY,"LOUISIANA CVS PHARMACY, L.L.C.",2915 HWY 190,MANDEVILLE,70471,DBA: CVS/PHARMACY  # 05435,
AK1011852,LA,SAINT TAMMANY,30.4723,-90.0866,649390,3896,22103,228431.14285714287,0.4,1.2740295777507906,CHAIN PHARMACY,K MART PHARMACY #7384,3555 HIGHWAY 190,MANDEVILLE,70471,,
BP9603829,LA,SAINT TAMMANY,30.4761,-90.0853,384230,687,22103,228431.14285714287,0.2,0.7537733890135638,RETAIL PHARMACY,"PHARMACY OPERATIONS, INC, THE MEDICINE SHOPPE",1000 BUSINESS 190,COVINGTON,70433,,
BA2514847,LA,SAINT TAMMANY,30.473,-90.0864,129330,542,22103,228431.14285714287,0.1,0.2536477949981802,CHAIN PHARMACY,SAV-A CENTER PHARMACY #081,3450 HIGHWAY 190,MANDEVILLE,70471,,
FA1579208,LA,SAINT TAMMANY,30.473,-90.0864,70820,347,22103,228431.14285714287,0,0.13884846778813673,CHAIN PHARMACY,ALBERTSONS #2814,"3450 HWY 190, SUITE 8",MANDEVILLE,70471,ALBERTSONS LLC,
BT6717637,LA,SAINT TAMMANY,30.4761,-90.0853,66400,41,22103,228431.14285714287,0,0.1301762232783368,RETAIL PHARMACY,THE MEDICINE SHOPPE,1000 BUSINESS 190,COVINGTON,70433,,
AP2657419,LA,LAFOURCHE,29.5685,-90.3752,2381520,4068,22057,95051.57142857143,3.6,11.229372296991343,RETAIL PHARMACY,PITRES' PHARMACY INC,13087 WEST MAIN STREET,LAROSE,70373,,
BT6516833,LA,LAFOURCHE,29.641,-90.5422,838700,2596,22057,95051.57142857143,1.3,3.954581373972622,RETAIL PHARMACY,ROBICHAUXS PHARMACY,616 CRESCENT AVENUE,LOCKPORT,70374,"SYNERGY HEALTHCARE, INC",
BR4971380,LA,LAFOURCHE,29.6421,-90.5259,694600,3328,22057,95051.57142857143,1,3.2751130160261357,RETAIL PHARMACY,ROUSE'S DISCOUNT PHARMACY #24,1428 CRESCENT AVE,LOCKPORT,70374,,
FW2437932,LA,TERREBONNE,29.6519,-90.6944,224100,746,22109,110670.71428571429,0.3,0.9074529122478362,RETAIL PHARMACY,WILLOW BARK PHARMACY,2138 BAYOU BLUE ROAD,HOUMA,70364,"MARCH WILLOWS, LLC",
BH7428495,LA,LINCOLN,32.5139,-92.6315,7950,62,22061,45322.142857142855,0,0.07851421690100334,RETAIL PHARMACY,HEALTHSOUTH WINNFIELD,1401 EZELL STREET SUITE 201,RUSTON,71270,,
BW5604384,LA,SAINT TAMMANY,30.2922,-89.7193,2871560,7855,22103,228431.14285714287,1.8,5.634029935746731,CHAIN PHARMACY,"WALGREEN LOUISIANA CO., INC.",100 N. MILITARY RD.,SLIDELL,70461,DBA: WALGREENS # 04290,
BW5506627,LA,SAINT TAMMANY,30.2786,-89.749,1547860,7559,22103,228431.14285714287,1,3.0368692892258857,CHAIN PHARMACY,WAL-MART PHARMACY 10-0553,39142 NATCHEZ DR,SLIDELL,70461,,
BC5286643,LA,SAINT TAMMANY,30.2861,-89.7357,1098200,2867,22103,228431.14285714287,0.7,2.154615563823934,CHAIN PHARMACY,"LOUISIANA CVS PHARMACY, L.L.C.",2103 GAUSE BLVD E,SLIDELL,70461,DBA: CVS/PHARMACY  # 05473,
BE5286643,LA,SAINT TAMMANY,30.2861,-89.7357,483300,1166,22103,228431.14285714287,0.3,0.948153312901771,CHAIN PHARMACY,"LOUISIANA CVS PHARMACY, L.L.C.",2103 GAUSE BLVD E,SLIDELL,70461,DBA: CVS/PHARMACY  # 05473,
BW7671591,LA,SAINT TAMMANY,30.3636,-90.0629,1778900,5110,22103,228431.14285714287,1.1,3.4901804592585037,CHAIN PHARMACY,"WALGREEN LOUISIANA CO., INC.",2050 FLORIDA STREET,MANDEVILLE,70448,DBA: WALGREENS # 06849,
BW9162861,LA,SAINT TAMMANY,30.3747,-90.091,610800,4140,22103,228431.14285714287,0.4,1.1983142122229222,CHAIN PHARMACY,"WINN DIXIE MONTGOMERY, LLC.",WINN DIXIE PHARMACY # 1446,MANDEVILLE,70448,,619 N CAUSEWAY BLVD
FW1729360,LA,SAINT TAMMANY,30.3726,-90.0772,219230,1281,22103,228431.14285714287,0.1,0.43003575459795657,CHAIN PHARMACY,WAL-MART PHARMACY 10-5832,3009 E CAUSEWAY APPROACH,MANDEVILLE,70448,,
AT5895149,LA,LIVINGSTON,30.4939,-90.7478,1210020,2964,22063,121772.85714285714,1.4,4.453449197018872,RETAIL PHARMACY,THRIFT TOWN DRUGS INC,29680 FROST ROAD,LIVINGSTON,70754,,
FT2900137,LA,LIVINGSTON,30.4958,-90.7475,228980,950,22063,121772.85714285714,0.3,0.8426712891710526,RETAIL PHARMACY,THRIFT TOWN DRUGS INC,POST OFFICE BOX 238,LIVINGSTON,70754,,29680 SOUTH FROST ROAD
BL0711172,LA,LIVINGSTON,30.5717,-90.9553,1264920,3324,22063,121772.85714285714,1.5,4.6555120151922855,RETAIL PHARMACY,LIVE OAK PHARMACY INC,34730 LA HWY 16,WATSON,70786,,P.O. BOX 829
BJ3906003,LA,LIVINGSTON,30.4842,-90.9529,9170110,17387,22063,121772.85714285714,10.8,33.75104880200985,RETAIL PHARMACY,JAMES DRUG STORE,257 FLORIDA BLVD SE,DENHAM SPRINGS,70726,,SUITE A
BN5191313,LA,LIVINGSTON,30.5012,-90.943,6797660,6717,22063,121772.85714285714,8,25.019101024678076,RETAIL PHARMACY,NORTHSIDE FAMILY PHARMACY,850 COCKERHAMRD,DENHAM SPRINGS,70726,,
BW3817648,LA,LIVINGSTON,30.4826,-90.9557,2949160,5126,22063,121772.85714285714,3.5,10.854460665108304,CHAIN PHARMACY,"WALGREEN LOUISIANA CO., INC.",101 FLORIDA AVE. SE,DENHAM SPRINGS,70726,DBA: WALGREENS # 03180,
BW5506134,LA,LIVINGSTON,30.4723,-90.9543,2747370,8413,22063,121772.85714285714,3.2,10.1117601900771,CHAIN PHARMACY,WAL-MART PHARMACY 10-0935,904 S RANGE AVENUE,DENHAM SPRINGS,70726,,
BL8343915,LA,LIVINGSTON,30.4842,-90.9529,1901950,3936,22063,121772.85714285714,2.2,7.00014001266058,RETAIL PHARMACY,LTC DISPENSARY LLC,257 FLORIDA BLVD SE,DENHAM SPRINGS,70726,,SUITE B
BC5276375,LA,LIVINGSTON,30.4764,-90.9543,1220800,2090,22063,121772.85714285714,1.4,4.493125648383342,CHAIN PHARMACY,"LOUISIANA CVS PHARMACY, L.L.C.",640 S RANGE AVENUE,DENHAM SPRINGS,70726,DBA: CVS/PHARMACY  # 05334,
AK9131753,LA,LIVINGSTON,30.455,-90.9563,1185000,2427,22063,121772.85714285714,1.4,4.361361552015251,CHAIN PHARMACY,K & B LOUISIANA CORPORATION,2308 SOUTH RANGE AVENUE,DENHAM SPRINGS,70726,RITE AID #7312,
BE5276375,LA,LIVINGSTON,30.4764,-90.9543,507600,666,22063,121772.85714285714,0.6,1.868149292804502,CHAIN PHARMACY,"LOUISIANA CVS PHARMACY, L.L.C.",640 S RANGE AVENUE,DENHAM SPRINGS,70726,DBA: CVS/PHARMACY  # 05334,
FA2525701,LA,LIVINGSTON,30.4803,-90.955,163290,541,22063,121772.85714285714,0.2,0.6008952140196591,CHAIN PHARMACY,ALBERTSONS LLC,402 S RANGE AVE,DENHAM SPRINGS,70726,ALBERTSONS PHARMACY #4038,
BB6234835,LA,TANGIPAHOA,30.9372,-90.5188,882710,2699,22105,117576.28571428571,1.1,3.3647243365987194,RETAIL PHARMACY,BROWN MORRIS PHARMACY INC,717 AVENUE G,KENTWOOD,70444,,
BS8105517,LA,TANGIPAHOA,30.9366,-90.5086,745830,1993,22105,117576.28571428571,0.9,2.8429474736786804,RETAIL PHARMACY,SCHILLING PHARMACY,210 AVENUE G,KENTWOOD,70444,,
AG3416167,LA,TANGIPAHOA,30.7326,-90.5116,1081960,2186,22105,117576.28571428571,1.3,4.124251220999786,RETAIL PHARMACY,THRIFT TOWN PHARMACY,512 N 2ND STREET,AMITE,70422,,P.O. BOX 918
FT1661140,LA,TANGIPAHOA,30.7326,-90.5116,899340,1820,22105,117576.28571428571,1.1,3.4281167184686807,RETAIL PHARMACY,THRIFT-TOWN PHARMACY,512 N 2ND STREET,AMITE,70422,,
BW9816034,LA,TANGIPAHOA,30.7291,-90.5295,753000,4325,22105,117576.28571428571,0.9,2.8702790057296492,CHAIN PHARMACY,WAL-MART PHARMACY 10-3616,1200 WEST OAK STREET,AMITE,70422,,
FW0560044,LA,TANGIPAHOA,30.728,-90.5206,507280,2678,22105,117576.28571428571,0.6,1.93361177343339,CHAIN PHARMACY,WINN DIXIE PHARMACY #1449,804 WEST OAK STREET,AMITE,70422,,
FW2282921,LA,TANGIPAHOA,30.7274,-90.5126,393830,873,22105,117576.28571428571,0.5,1.5011484106464346,CHAIN PHARMACY,"WALGREEN LOUISIANA CO., INC.",300 W OAK ST,AMITE,70422,DBA: WALGREENS #13604,
BW9728710,LA,TANGIPAHOA,30.728,-90.5206,162530,743,22105,117576.28571428571,0.2,0.6194491967846211,CHAIN PHARMACY,WINN DIXIE MONTGOMERY,WINN DIXIE PHARMACY # 1449,AMITE,70422,,804 W OAK STREET
BF8399683,LA,TANGIPAHOA,30.7266,-90.5203,160300,562,22105,117576.28571428571,0.2,0.6109485947659793,RETAIL PHARMACY,FRED'S PHARMACY #1064,757 WEST OAK STREET,AMITE,70422,,
BW3951248,LA,TANGIPAHOA,30.728,-90.5206,44800,208,22105,117576.28571428571,0.1,0.17067077720852367,CHAIN PHARMACY,"WINN-DIXIE PHARMACY, #1449",804 WEST OAK ST,AMITE,70422,,
AP6304327,LA,TANGIPAHOA,30.7271,-90.5081,28100,118,22105,117576.28571428571,0,0.10701156029761885,RETAIL PHARMACY,PEOPLES CASH PHARMACY,WILLIAMS JAMES RAYMOND,AMITE,70422,,114 N.E. CENTRAL AVE
BD3012147,LA,TANGIPAHOA,30.7241,-90.5108,2521370,3994,22105,117576.28571428571,3.1,9.611180167929456,RETAIL PHARMACY,DRIVE IN DRUG STORE,228 SOUTH FIRST ST,AMITE,70422,,
BB7570232,LA,NATCHITOCHES,31.774,-93.1076,667400,3010,22069,39198.57142857143,2.4,7.630879946839652,CHAIN PHARMACY,SUPER 1 PHARMACY #604,5696 HIGHWAY 1 BYPASS,NATCHITOCHES,71457,,
FP0673841,LA,TANGIPAHOA,30.6366,-90.3989,436370,1162,22105,117576.28571428571,0.5,1.6633078769572065,RETAIL PHARMACY,PF SPAM INC,54033 HWY 1062,LORANGER,70446,DBA AS PAUL'S PHARMACY LORANGER,POST OFFICE BOX 860
